[
  {
    "city": "Tokyo",
    "city_ascii": "Tokyo",
    "lat": 35.687,
    "lng": 139.7495,
    "country": "Japan",
    "iso2": "JP",
    "iso3": "JPN",
    "admin_name": "Tōkyō",
    "capital": "primary",
    "population": 37785000,
    "id": 1392685764
  },
  {
    "city": "Jakarta",
    "city_ascii": "Jakarta",
    "lat": -6.175,
    "lng": 106.8275,
    "country": "Indonesia",
    "iso2": "ID",
    "iso3": "IDN",
    "admin_name": "Jakarta",
    "capital": "primary",
    "population": 33756000,
    "id": 1360771077
  },
  {
    "city": "Delhi",
    "city_ascii": "Delhi",
    "lat": 28.61,
    "lng": 77.23,
    "country": "India",
    "iso2": "IN",
    "iso3": "IND",
    "admin_name": "Delhi",
    "capital": "admin",
    "population": 32226000,
    "id": 1356872604
  },
  {
    "city": "Guangzhou",
    "city_ascii": "Guangzhou",
    "lat": 23.13,
    "lng": 113.26,
    "country": "China",
    "iso2": "CN",
    "iso3": "CHN",
    "admin_name": "Guangdong",
    "capital": "admin",
    "population": 26940000,
    "id": 1156237133
  },
  {
    "city": "Manila",
    "city_ascii": "Manila",
    "lat": 14.5958,
    "lng": 120.9772,
    "country": "Philippines",
    "iso2": "PH",
    "iso3": "PHL",
    "admin_name": "Manila",
    "capital": "primary",
    "population": 24922000,
    "id": 1608618140
  },
  {
    "city": "São Paulo",
    "city_ascii": "Sao Paulo",
    "lat": -23.5504,
    "lng": -46.6339,
    "country": "Brazil",
    "iso2": "BR",
    "iso3": "BRA",
    "admin_name": "São Paulo",
    "capital": "admin",
    "population": 23086000,
    "id": 1076532519
  },
  {
    "city": "Seoul",
    "city_ascii": "Seoul",
    "lat": 37.5667,
    "lng": 126.9833,
    "country": "Korea, South",
    "iso2": "KR",
    "iso3": "KOR",
    "admin_name": "Seoul",
    "capital": "primary",
    "population": 23016000,
    "id": 1410836482
  },
  {
    "city": "Mexico City",
    "city_ascii": "Mexico City",
    "lat": 19.4333,
    "lng": -99.1333,
    "country": "Mexico",
    "iso2": "MX",
    "iso3": "MEX",
    "admin_name": "Ciudad de México",
    "capital": "primary",
    "population": 21804000,
    "id": 1484247881
  },
  {
    "city": "Cairo",
    "city_ascii": "Cairo",
    "lat": 30.0444,
    "lng": 31.2358,
    "country": "Egypt",
    "iso2": "EG",
    "iso3": "EGY",
    "admin_name": "Al Qāhirah",
    "capital": "primary",
    "population": 20296000,
    "id": 1818253931
  },
  {
    "city": "Karachi",
    "city_ascii": "Karachi",
    "lat": 24.86,
    "lng": 67.01,
    "country": "Pakistan",
    "iso2": "PK",
    "iso3": "PAK",
    "admin_name": "Sindh",
    "capital": "admin",
    "population": 20249000,
    "id": 1586129469
  },
  {
    "city": "Dhaka",
    "city_ascii": "Dhaka",
    "lat": 23.7289,
    "lng": 90.3944,
    "country": "Bangladesh",
    "iso2": "BD",
    "iso3": "BGD",
    "admin_name": "Dhaka",
    "capital": "primary",
    "population": 19134000,
    "id": 1050529279
  },
  {
    "city": "New York",
    "city_ascii": "New York",
    "lat": 40.6943,
    "lng": -73.9249,
    "country": "United States",
    "iso2": "US",
    "iso3": "USA",
    "admin_name": "New York",
    "population": 18832416,
    "id": 1840034016
  },
  {
    "city": "Bangkok",
    "city_ascii": "Bangkok",
    "lat": 13.7525,
    "lng": 100.4942,
    "country": "Thailand",
    "iso2": "TH",
    "iso3": "THA",
    "admin_name": "Krung Thep Maha Nakhon",
    "capital": "primary",
    "population": 18007000,
    "id": 1764068610
  },
  {
    "city": "Moscow",
    "city_ascii": "Moscow",
    "lat": 55.7506,
    "lng": 37.6175,
    "country": "Russia",
    "iso2": "RU",
    "iso3": "RUS",
    "admin_name": "Moskva",
    "capital": "primary",
    "population": 17332000,
    "id": 1643318494
  },
  {
    "city": "Buenos Aires",
    "city_ascii": "Buenos Aires",
    "lat": -34.6036,
    "lng": -58.3814,
    "country": "Argentina",
    "iso2": "AR",
    "iso3": "ARG",
    "admin_name": "Buenos Aires, Ciudad Autónoma de",
    "capital": "primary",
    "population": 16710000,
    "id": 1032717330
  },
  {
    "city": "Lagos",
    "city_ascii": "Lagos",
    "lat": 6.455,
    "lng": 3.3841,
    "country": "Nigeria",
    "iso2": "NG",
    "iso3": "NGA",
    "admin_name": "Lagos",
    "capital": "minor",
    "population": 16637000,
    "id": 1566593751
  },
  {
    "city": "Ho Chi Minh City",
    "city_ascii": "Ho Chi Minh City",
    "lat": 10.7756,
    "lng": 106.7019,
    "country": "Vietnam",
    "iso2": "VN",
    "iso3": "VNM",
    "admin_name": "Hồ Chí Minh",
    "capital": "admin",
    "population": 15136000,
    "id": 1704774326
  },
  {
    "city": "Istanbul",
    "city_ascii": "Istanbul",
    "lat": 41.0136,
    "lng": 28.955,
    "country": "Turkey",
    "iso2": "TR",
    "iso3": "TUR",
    "admin_name": "İstanbul",
    "capital": "admin",
    "population": 14441000,
    "id": 1792756324
  },
  {
    "city": "Tehran",
    "city_ascii": "Tehran",
    "lat": 35.6889,
    "lng": 51.3897,
    "country": "Iran",
    "iso2": "IR",
    "iso3": "IRN",
    "admin_name": "Tehrān",
    "capital": "primary",
    "population": 14148000,
    "id": 1364305026
  },
  {
    "city": "Kinshasa",
    "city_ascii": "Kinshasa",
    "lat": -4.3219,
    "lng": 15.3119,
    "country": "Congo (Kinshasa)",
    "iso2": "CD",
    "iso3": "COD",
    "admin_name": "Kinshasa",
    "capital": "primary",
    "population": 12836000,
    "id": 1180000363
  },
  {
    "city": "London",
    "city_ascii": "London",
    "lat": 51.5072,
    "lng": -0.1275,
    "country": "United Kingdom",
    "iso2": "GB",
    "iso3": "GBR",
    "admin_name": "London, City of",
    "capital": "primary",
    "population": 11262000,
    "id": 1826645935
  },
  {
    "city": "Paris",
    "city_ascii": "Paris",
    "lat": 48.8567,
    "lng": 2.3522,
    "country": "France",
    "iso2": "FR",
    "iso3": "FRA",
    "admin_name": "Île-de-France",
    "capital": "primary",
    "population": 11060000,
    "id": 1250015082
  },
  {
    "city": "Lima",
    "city_ascii": "Lima",
    "lat": -12.06,
    "lng": -77.0375,
    "country": "Peru",
    "iso2": "PE",
    "iso3": "PER",
    "admin_name": "Lima",
    "capital": "primary",
    "population": 10320000,
    "id": 1604728603
  },
  {
    "city": "Luanda",
    "city_ascii": "Luanda",
    "lat": -8.8383,
    "lng": 13.2344,
    "country": "Angola",
    "iso2": "AO",
    "iso3": "AGO",
    "admin_name": "Luanda",
    "capital": "primary",
    "population": 9051000,
    "id": 1024949724
  },
  {
    "city": "Kuala Lumpur",
    "city_ascii": "Kuala Lumpur",
    "lat": 3.1686,
    "lng": 101.698,
    "country": "Malaysia",
    "iso2": "MY",
    "iso3": "MYS",
    "admin_name": "Kuala Lumpur",
    "capital": "primary",
    "population": 8911000,
    "id": 1458988644
  },
  {
    "city": "Bogotá",
    "city_ascii": "Bogota",
    "lat": 4.7111,
    "lng": -74.0722,
    "country": "Colombia",
    "iso2": "CO",
    "iso3": "COL",
    "admin_name": "Bogotá",
    "capital": "primary",
    "population": 8034649,
    "id": 1170483426
  },
  {
    "city": "Dar es Salaam",
    "city_ascii": "Dar es Salaam",
    "lat": -6.8161,
    "lng": 39.2803,
    "country": "Tanzania",
    "iso2": "TZ",
    "iso3": "TZA",
    "admin_name": "Dar es Salaam",
    "capital": "admin",
    "population": 7962000,
    "id": 1834843853
  },
  {
    "city": "Khartoum",
    "city_ascii": "Khartoum",
    "lat": 15.6031,
    "lng": 32.5265,
    "country": "Sudan",
    "iso2": "SD",
    "iso3": "SDN",
    "admin_name": "Khartoum",
    "capital": "primary",
    "population": 7869000,
    "id": 1729268475
  },
  {
    "city": "Johannesburg",
    "city_ascii": "Johannesburg",
    "lat": -26.2044,
    "lng": 28.0456,
    "country": "South Africa",
    "iso2": "ZA",
    "iso3": "ZAF",
    "admin_name": "Gauteng",
    "capital": "admin",
    "population": 7860781,
    "id": 1710550792
  },
  {
    "city": "Hong Kong",
    "city_ascii": "Hong Kong",
    "lat": 22.3,
    "lng": 114.2,
    "country": "Hong Kong",
    "iso2": "HK",
    "iso3": "HKG",
    "capital": "primary",
    "population": 7450000,
    "id": 1344982653
  },
  {
    "city": "Riyadh",
    "city_ascii": "Riyadh",
    "lat": 24.65,
    "lng": 46.71,
    "country": "Saudi Arabia",
    "iso2": "SA",
    "iso3": "SAU",
    "admin_name": "Ar Riyāḑ",
    "capital": "primary",
    "population": 7237000,
    "id": 1682999334
  },
  {
    "city": "Santiago",
    "city_ascii": "Santiago",
    "lat": -33.4372,
    "lng": -70.6506,
    "country": "Chile",
    "iso2": "CL",
    "iso3": "CHL",
    "admin_name": "Región Metropolitana",
    "capital": "primary",
    "population": 7171000,
    "id": 1152554349
  },
  {
    "city": "Rangoon",
    "city_ascii": "Rangoon",
    "lat": 16.795,
    "lng": 96.16,
    "country": "Burma",
    "iso2": "MM",
    "iso3": "MMR",
    "admin_name": "Yangon",
    "capital": "primary",
    "population": 6874000,
    "id": 1104616656
  },
  {
    "city": "Madrid",
    "city_ascii": "Madrid",
    "lat": 40.4169,
    "lng": -3.7033,
    "country": "Spain",
    "iso2": "ES",
    "iso3": "ESP",
    "admin_name": "Madrid",
    "capital": "primary",
    "population": 6211000,
    "id": 1724616994
  },
  {
    "city": "Baghdad",
    "city_ascii": "Baghdad",
    "lat": 33.3153,
    "lng": 44.3661,
    "country": "Iraq",
    "iso2": "IQ",
    "iso3": "IRQ",
    "admin_name": "Baghdād",
    "capital": "primary",
    "population": 6183000,
    "id": 1368596238
  },
  {
    "city": "Singapore",
    "city_ascii": "Singapore",
    "lat": 1.3,
    "lng": 103.8,
    "country": "Singapore",
    "iso2": "SG",
    "iso3": "SGP",
    "capital": "primary",
    "population": 5983000,
    "id": 1702341327
  },
  {
    "city": "Douala",
    "city_ascii": "Douala",
    "lat": 4.05,
    "lng": 9.7,
    "country": "Cameroon",
    "iso2": "CM",
    "iso3": "CMR",
    "admin_name": "Littoral",
    "capital": "admin",
    "population": 5768400,
    "id": 1120494607
  },
  {
    "city": "Addis Ababa",
    "city_ascii": "Addis Ababa",
    "lat": 9.03,
    "lng": 38.74,
    "country": "Ethiopia",
    "iso2": "ET",
    "iso3": "ETH",
    "admin_name": "Ādīs Ābeba",
    "capital": "primary",
    "population": 5704000,
    "id": 1231824991
  },
  {
    "city": "Toronto",
    "city_ascii": "Toronto",
    "lat": 43.7417,
    "lng": -79.3733,
    "country": "Canada",
    "iso2": "CA",
    "iso3": "CAN",
    "admin_name": "Ontario",
    "capital": "admin",
    "population": 5647656,
    "id": 1124279679
  },
  {
    "city": "Nairobi",
    "city_ascii": "Nairobi",
    "lat": -1.2864,
    "lng": 36.8172,
    "country": "Kenya",
    "iso2": "KE",
    "iso3": "KEN",
    "admin_name": "Nairobi City",
    "capital": "primary",
    "population": 5545000,
    "id": 1404000661
  },
  {
    "city": "Melbourne",
    "city_ascii": "Melbourne",
    "lat": -37.8142,
    "lng": 144.9631,
    "country": "Australia",
    "iso2": "AU",
    "iso3": "AUS",
    "admin_name": "Victoria",
    "capital": "admin",
    "population": 5031195,
    "id": 1036533631
  },
  {
    "city": "Abidjan",
    "city_ascii": "Abidjan",
    "lat": 5.3364,
    "lng": -4.0267,
    "country": "Côte d’Ivoire",
    "iso2": "CI",
    "iso3": "CIV",
    "admin_name": "Abidjan",
    "capital": "primary",
    "population": 4980000,
    "id": 1384207980
  },
  {
    "city": "Berlin",
    "city_ascii": "Berlin",
    "lat": 52.52,
    "lng": 13.405,
    "country": "Germany",
    "iso2": "DE",
    "iso3": "DEU",
    "admin_name": "Berlin",
    "capital": "primary",
    "population": 4679500,
    "id": 1276451290
  },
  {
    "city": "Kabul",
    "city_ascii": "Kabul",
    "lat": 34.5253,
    "lng": 69.1783,
    "country": "Afghanistan",
    "iso2": "AF",
    "iso3": "AFG",
    "admin_name": "Kābul",
    "capital": "primary",
    "population": 4273156,
    "id": 1004993580
  },
  {
    "city": "Bamako",
    "city_ascii": "Bamako",
    "lat": 12.6458,
    "lng": -7.9922,
    "country": "Mali",
    "iso2": "ML",
    "iso3": "MLI",
    "admin_name": "Bamako",
    "capital": "primary",
    "population": 4227569,
    "id": 1466965925
  },
  {
    "city": "Amman",
    "city_ascii": "Amman",
    "lat": 31.9497,
    "lng": 35.9328,
    "country": "Jordan",
    "iso2": "JO",
    "iso3": "JOR",
    "admin_name": "Al ‘Āşimah",
    "capital": "primary",
    "population": 4007526,
    "id": 1400522593
  },
  {
    "city": "Kumasi",
    "city_ascii": "Kumasi",
    "lat": 6.7,
    "lng": -1.625,
    "country": "Ghana",
    "iso2": "GH",
    "iso3": "GHA",
    "admin_name": "Ashanti",
    "capital": "admin",
    "population": 3903480,
    "id": 1288181103
  },
  {
    "city": "Dubai",
    "city_ascii": "Dubai",
    "lat": 25.2631,
    "lng": 55.2972,
    "country": "United Arab Emirates",
    "iso2": "AE",
    "iso3": "ARE",
    "admin_name": "Dubayy",
    "capital": "admin",
    "population": 3331420,
    "id": 1784736618
  },
  {
    "city": "Caracas",
    "city_ascii": "Caracas",
    "lat": 10.4806,
    "lng": -66.9036,
    "country": "Venezuela",
    "iso2": "VE",
    "iso3": "VEN",
    "admin_name": "Distrito Capital",
    "capital": "primary",
    "population": 3242000,
    "id": 1862748204
  },
  {
    "city": "Casablanca",
    "city_ascii": "Casablanca",
    "lat": 33.5333,
    "lng": -7.5833,
    "country": "Morocco",
    "iso2": "MA",
    "iso3": "MAR",
    "admin_name": "Casablanca-Settat",
    "capital": "admin",
    "population": 3215935,
    "id": 1504175315
  },
  {
    "city": "Santa Cruz de la Sierra",
    "city_ascii": "Santa Cruz de la Sierra",
    "lat": -17.7892,
    "lng": -63.1975,
    "country": "Bolivia",
    "iso2": "BO",
    "iso3": "BOL",
    "admin_name": "Santa Cruz",
    "population": 3151676,
    "id": 1068005036
  },
  {
    "city": "Tashkent",
    "city_ascii": "Tashkent",
    "lat": 41.3111,
    "lng": 69.2797,
    "country": "Uzbekistan",
    "iso2": "UZ",
    "iso3": "UZB",
    "admin_name": "Toshkent",
    "capital": "primary",
    "population": 3095498,
    "id": 1860331871
  },
  {
    "city": "Guayaquil",
    "city_ascii": "Guayaquil",
    "lat": -2.19,
    "lng": -79.8875,
    "country": "Ecuador",
    "iso2": "EC",
    "iso3": "ECU",
    "admin_name": "Guayas",
    "capital": "admin",
    "population": 3094420,
    "id": 1218802178
  },
  {
    "city": "Ouagadougou",
    "city_ascii": "Ouagadougou",
    "lat": 12.3686,
    "lng": -1.5275,
    "country": "Burkina Faso",
    "iso2": "BF",
    "iso3": "BFA",
    "admin_name": "Centre",
    "capital": "primary",
    "population": 3063271,
    "id": 1854029208
  },
  {
    "city": "Athens",
    "city_ascii": "Athens",
    "lat": 37.9842,
    "lng": 23.7281,
    "country": "Greece",
    "iso2": "GR",
    "iso3": "GRC",
    "admin_name": "Attikí",
    "capital": "primary",
    "population": 3059764,
    "id": 1300715560
  },
  {
    "city": "Guatemala City",
    "city_ascii": "Guatemala City",
    "lat": 14.6417,
    "lng": -90.5133,
    "country": "Guatemala",
    "iso2": "GT",
    "iso3": "GTM",
    "admin_name": "Guatemala",
    "capital": "primary",
    "population": 3014000,
    "id": 1320197916
  },
  {
    "city": "Kuwait City",
    "city_ascii": "Kuwait City",
    "lat": 29.3697,
    "lng": 47.9783,
    "country": "Kuwait",
    "iso2": "KW",
    "iso3": "KWT",
    "admin_name": "Al ‘Āşimah",
    "capital": "primary",
    "population": 2989000,
    "id": 1414102075
  },
  {
    "city": "Kyiv",
    "city_ascii": "Kyiv",
    "lat": 50.45,
    "lng": 30.5233,
    "country": "Ukraine",
    "iso2": "UA",
    "iso3": "UKR",
    "admin_name": "Kyiv, Misto",
    "capital": "primary",
    "population": 2952301,
    "id": 1804382913
  },
  {
    "city": "Pyongyang",
    "city_ascii": "Pyongyang",
    "lat": 39.0167,
    "lng": 125.7475,
    "country": "Korea, North",
    "iso2": "KP",
    "iso3": "PRK",
    "admin_name": "P’yŏngyang",
    "capital": "primary",
    "population": 2863000,
    "id": 1408738594
  },
  {
    "city": "Taichung",
    "city_ascii": "Taichung",
    "lat": 24.1439,
    "lng": 120.6794,
    "country": "Taiwan",
    "iso2": "TW",
    "iso3": "TWN",
    "admin_name": "Taichung",
    "capital": "admin",
    "population": 2850285,
    "id": 1158689622
  },
  {
    "city": "Rome",
    "city_ascii": "Rome",
    "lat": 41.8931,
    "lng": 12.4828,
    "country": "Italy",
    "iso2": "IT",
    "iso3": "ITA",
    "admin_name": "Lazio",
    "capital": "primary",
    "population": 2748109,
    "id": 1380382862
  },
  {
    "city": "Damascus",
    "city_ascii": "Damascus",
    "lat": 33.502,
    "lng": 36.2981,
    "country": "Syria",
    "iso2": "SY",
    "iso3": "SYR",
    "admin_name": "Dimashq",
    "capital": "primary",
    "population": 2584771,
    "id": 1760685964
  },
  {
    "city": "Brazzaville",
    "city_ascii": "Brazzaville",
    "lat": -4.2667,
    "lng": 15.2667,
    "country": "Congo (Brazzaville)",
    "iso2": "CG",
    "iso3": "COG",
    "admin_name": "Brazzaville",
    "capital": "primary",
    "population": 2557100,
    "id": 1178340306
  },
  {
    "city": "Sanaa",
    "city_ascii": "Sanaa",
    "lat": 15.3483,
    "lng": 44.2064,
    "country": "Yemen",
    "iso2": "YE",
    "iso3": "YEM",
    "admin_name": "Amānat al ‘Āşimah",
    "capital": "primary",
    "population": 2545000,
    "id": 1887750814
  },
  {
    "city": "Beirut",
    "city_ascii": "Beirut",
    "lat": 33.8981,
    "lng": 35.5058,
    "country": "Lebanon",
    "iso2": "LB",
    "iso3": "LBN",
    "admin_name": "Beyrouth",
    "capital": "primary",
    "population": 2421354,
    "id": 1422847713
  },
  {
    "city": "Bucharest",
    "city_ascii": "Bucharest",
    "lat": 44.4325,
    "lng": 26.1039,
    "country": "Romania",
    "iso2": "RO",
    "iso3": "ROU",
    "admin_name": "Bucureşti",
    "capital": "primary",
    "population": 2412530,
    "id": 1642414442
  },
  {
    "city": "Algiers",
    "city_ascii": "Algiers",
    "lat": 36.7325,
    "lng": 3.0872,
    "country": "Algeria",
    "iso2": "DZ",
    "iso3": "DZA",
    "admin_name": "Alger",
    "capital": "primary",
    "population": 2364230,
    "id": 1012973369
  },
  {
    "city": "Baku",
    "city_ascii": "Baku",
    "lat": 40.3667,
    "lng": 49.8352,
    "country": "Azerbaijan",
    "iso2": "AZ",
    "iso3": "AZE",
    "admin_name": "Bakı",
    "capital": "primary",
    "population": 2300500,
    "id": 1031946365
  },
  {
    "city": "Almaty",
    "city_ascii": "Almaty",
    "lat": 43.24,
    "lng": 76.915,
    "country": "Kazakhstan",
    "iso2": "KZ",
    "iso3": "KAZ",
    "admin_name": "Almaty",
    "capital": "admin",
    "population": 2228675,
    "id": 1398351701
  },
  {
    "city": "Vienna",
    "city_ascii": "Vienna",
    "lat": 48.2083,
    "lng": 16.3725,
    "country": "Austria",
    "iso2": "AT",
    "iso3": "AUT",
    "admin_name": "Wien",
    "capital": "primary",
    "population": 2223236,
    "id": 1040261752
  },
  {
    "city": "Phnom Penh",
    "city_ascii": "Phnom Penh",
    "lat": 11.5696,
    "lng": 104.921,
    "country": "Cambodia",
    "iso2": "KH",
    "iso3": "KHM",
    "admin_name": "Phnom Penh",
    "capital": "primary",
    "population": 2129371,
    "id": 1116260534
  },
  {
    "city": "Mogadishu",
    "city_ascii": "Mogadishu",
    "lat": 2.0392,
    "lng": 45.3419,
    "country": "Somalia",
    "iso2": "SO",
    "iso3": "SOM",
    "admin_name": "Banaadir",
    "capital": "primary",
    "population": 2120000,
    "id": 1706893395
  },
  {
    "city": "Havana",
    "city_ascii": "Havana",
    "lat": 23.1367,
    "lng": -82.3589,
    "country": "Cuba",
    "iso2": "CU",
    "iso3": "CUB",
    "admin_name": "La Habana",
    "capital": "primary",
    "population": 2089532,
    "id": 1192752771
  },
  {
    "city": "Warsaw",
    "city_ascii": "Warsaw",
    "lat": 52.23,
    "lng": 21.0111,
    "country": "Poland",
    "iso2": "PL",
    "iso3": "POL",
    "admin_name": "Mazowieckie",
    "capital": "primary",
    "population": 2028000,
    "id": 1616024847
  },
  {
    "city": "Minsk",
    "city_ascii": "Minsk",
    "lat": 53.9006,
    "lng": 27.5586,
    "country": "Belarus",
    "iso2": "BY",
    "iso3": "BLR",
    "admin_name": "Minsk",
    "capital": "primary",
    "population": 1992862,
    "id": 1112348503
  },
  {
    "city": "Tilburg",
    "city_ascii": "Tilburg",
    "lat": 51.5572,
    "lng": 5.0911,
    "country": "Netherlands",
    "iso2": "NL",
    "iso3": "NLD",
    "admin_name": "Noord-Brabant",
    "capital": "minor",
    "population": 1944588,
    "id": 1528817379
  },
  {
    "city": "San Juan",
    "city_ascii": "San Juan",
    "lat": 18.3985,
    "lng": -66.061,
    "country": "Puerto Rico",
    "iso2": "PR",
    "iso3": "PRI",
    "admin_name": "Puerto Rico",
    "capital": "primary",
    "population": 1809800,
    "id": 1630035577
  },
  {
    "city": "Lusaka",
    "city_ascii": "Lusaka",
    "lat": -15.4167,
    "lng": 28.2833,
    "country": "Zambia",
    "iso2": "ZM",
    "iso3": "ZMB",
    "admin_name": "Lusaka",
    "capital": "primary",
    "population": 1747152,
    "id": 1894157390
  },
  {
    "city": "Masqaţ",
    "city_ascii": "Masqat",
    "lat": 23.614,
    "lng": 58.5911,
    "country": "Oman",
    "iso2": "OM",
    "iso3": "OMN",
    "admin_name": "Masqaţ",
    "population": 1720000,
    "id": 1512001294
  },
  {
    "city": "Montevideo",
    "city_ascii": "Montevideo",
    "lat": -34.9056,
    "lng": -56.1842,
    "country": "Uruguay",
    "iso2": "UY",
    "iso3": "URY",
    "admin_name": "Montevideo",
    "capital": "primary",
    "population": 1719453,
    "id": 1858107000
  },
  {
    "city": "Budapest",
    "city_ascii": "Budapest",
    "lat": 47.4983,
    "lng": 19.0408,
    "country": "Hungary",
    "iso2": "HU",
    "iso3": "HUN",
    "admin_name": "Budapest",
    "capital": "primary",
    "population": 1686222,
    "id": 1348611435
  },
  {
    "city": "Kampala",
    "city_ascii": "Kampala",
    "lat": 0.3136,
    "lng": 32.5811,
    "country": "Uganda",
    "iso2": "UG",
    "iso3": "UGA",
    "admin_name": "Kampala",
    "capital": "primary",
    "population": 1680600,
    "id": 1800406299
  },
  {
    "city": "Conakry",
    "city_ascii": "Conakry",
    "lat": 9.5092,
    "lng": -13.7122,
    "country": "Guinea",
    "iso2": "GN",
    "iso3": "GIN",
    "admin_name": "Conakry",
    "capital": "primary",
    "population": 1667864,
    "id": 1324568159
  },
  {
    "city": "Dushanbe",
    "city_ascii": "Dushanbe",
    "lat": 38.5367,
    "lng": 68.78,
    "country": "Tajikistan",
    "iso2": "TJ",
    "iso3": "TJK",
    "admin_name": "Dushanbe",
    "capital": "primary",
    "population": 1564700,
    "id": 1762930616
  },
  {
    "city": "Harare",
    "city_ascii": "Harare",
    "lat": -17.8292,
    "lng": 31.0522,
    "country": "Zimbabwe",
    "iso2": "ZW",
    "iso3": "ZWE",
    "admin_name": "Harare",
    "capital": "primary",
    "population": 1558823,
    "id": 1716196799
  },
  {
    "city": "San José",
    "city_ascii": "San Jose",
    "lat": 9.9325,
    "lng": -84.08,
    "country": "Costa Rica",
    "iso2": "CR",
    "iso3": "CRI",
    "admin_name": "San José",
    "capital": "primary",
    "population": 1543000,
    "id": 1188749877
  },
  {
    "city": "San Salvador",
    "city_ascii": "San Salvador",
    "lat": 13.6989,
    "lng": -89.1914,
    "country": "El Salvador",
    "iso2": "SV",
    "iso3": "SLV",
    "admin_name": "San Salvador",
    "capital": "primary",
    "population": 1538525,
    "id": 1222647454
  },
  {
    "city": "Lomé",
    "city_ascii": "Lome",
    "lat": 6.1308,
    "lng": 1.2153,
    "country": "Togo",
    "iso2": "TG",
    "iso3": "TGO",
    "admin_name": "Maritime",
    "capital": "primary",
    "population": 1500000,
    "id": 1768409132
  },
  {
    "city": "Niamey",
    "city_ascii": "Niamey",
    "lat": 13.515,
    "lng": 2.1175,
    "country": "Niger",
    "iso2": "NE",
    "iso3": "NER",
    "admin_name": "Niamey",
    "capital": "primary",
    "population": 1496260,
    "id": 1562932886
  },
  {
    "city": "Auckland",
    "city_ascii": "Auckland",
    "lat": -36.8492,
    "lng": 174.7653,
    "country": "New Zealand",
    "iso2": "NZ",
    "iso3": "NZL",
    "admin_name": "Auckland",
    "capital": "admin",
    "population": 1470100,
    "id": 1554435911
  },
  {
    "city": "Dakar",
    "city_ascii": "Dakar",
    "lat": 14.6726,
    "lng": -17.432,
    "country": "Senegal",
    "iso2": "SN",
    "iso3": "SEN",
    "admin_name": "Dakar",
    "capital": "primary",
    "population": 1438725,
    "id": 1686604760
  },
  {
    "city": "Sofia",
    "city_ascii": "Sofia",
    "lat": 42.6979,
    "lng": 23.3217,
    "country": "Bulgaria",
    "iso2": "BG",
    "iso3": "BGR",
    "admin_name": "Sofia-Grad",
    "capital": "primary",
    "population": 1404116,
    "id": 1100762037
  },
  {
    "city": "Ulaanbaatar",
    "city_ascii": "Ulaanbaatar",
    "lat": 47.9214,
    "lng": 106.9055,
    "country": "Mongolia",
    "iso2": "MN",
    "iso3": "MNG",
    "admin_name": "Ulaanbaatar",
    "capital": "primary",
    "population": 1396288,
    "id": 1496024767
  },
  {
    "city": "Prague",
    "city_ascii": "Prague",
    "lat": 50.0875,
    "lng": 14.4214,
    "country": "Czechia",
    "iso2": "CZ",
    "iso3": "CZE",
    "admin_name": "Praha",
    "capital": "primary",
    "population": 1384732,
    "id": 1203744823
  },
  {
    "city": "Copenhagen",
    "city_ascii": "Copenhagen",
    "lat": 55.6805,
    "lng": 12.5615,
    "country": "Denmark",
    "iso2": "DK",
    "iso3": "DNK",
    "admin_name": "Hovedstaden",
    "capital": "primary",
    "population": 1366301,
    "id": 1208763942
  },
  {
    "city": "Helsinki",
    "city_ascii": "Helsinki",
    "lat": 60.1708,
    "lng": 24.9375,
    "country": "Finland",
    "iso2": "FI",
    "iso3": "FIN",
    "admin_name": "Uusimaa",
    "capital": "primary",
    "population": 1360075,
    "id": 1246177997
  },
  {
    "city": "Santiago",
    "city_ascii": "Santiago",
    "lat": 19.4572,
    "lng": -70.6889,
    "country": "Dominican Republic",
    "iso2": "DO",
    "iso3": "DOM",
    "admin_name": "Cibao Norte",
    "capital": "admin",
    "population": 1343423,
    "id": 1214985348
  },
  {
    "city": "Antananarivo",
    "city_ascii": "Antananarivo",
    "lat": -18.91,
    "lng": 47.525,
    "country": "Madagascar",
    "iso2": "MG",
    "iso3": "MDG",
    "admin_name": "Antananarivo",
    "capital": "primary",
    "population": 1275207,
    "id": 1450978461
  },
  {
    "city": "Comayagüela",
    "city_ascii": "Comayaguela",
    "lat": 14.098,
    "lng": -87.21,
    "country": "Honduras",
    "iso2": "HN",
    "iso3": "HND",
    "admin_name": "Francisco Morazán",
    "population": 1250000,
    "id": 1340762485
  },
  {
    "city": "Brussels",
    "city_ascii": "Brussels",
    "lat": 50.8467,
    "lng": 4.3525,
    "country": "Belgium",
    "iso2": "BE",
    "iso3": "BEL",
    "admin_name": "Brussels-Capital Region",
    "capital": "primary",
    "population": 1249597,
    "id": 1056469830
  },
  {
    "city": "Belgrade",
    "city_ascii": "Belgrade",
    "lat": 44.8178,
    "lng": 20.4569,
    "country": "Serbia",
    "iso2": "RS",
    "iso3": "SRB",
    "admin_name": "Beograd",
    "capital": "primary",
    "population": 1197714,
    "id": 1688374696
  },
  {
    "city": "Doha",
    "city_ascii": "Doha",
    "lat": 25.2867,
    "lng": 51.5333,
    "country": "Qatar",
    "iso2": "QA",
    "iso3": "QAT",
    "admin_name": "Ad Dawḩah",
    "capital": "primary",
    "population": 1186023,
    "id": 1634459660
  },
  {
    "city": "Tripoli",
    "city_ascii": "Tripoli",
    "lat": 32.8872,
    "lng": 13.1914,
    "country": "Libya",
    "iso2": "LY",
    "iso3": "LBY",
    "admin_name": "Ţarābulus",
    "capital": "primary",
    "population": 1183000,
    "id": 1434201852
  },
  {
    "city": "Kigali",
    "city_ascii": "Kigali",
    "lat": -1.9536,
    "lng": 30.0606,
    "country": "Rwanda",
    "iso2": "RW",
    "iso3": "RWA",
    "admin_name": "Kigali",
    "capital": "primary",
    "population": 1156663,
    "id": 1646923541
  },
  {
    "city": "Bishkek",
    "city_ascii": "Bishkek",
    "lat": 42.8667,
    "lng": 74.5667,
    "country": "Kyrgyzstan",
    "iso2": "KG",
    "iso3": "KGZ",
    "admin_name": "Bishkek",
    "capital": "primary",
    "population": 1145044,
    "id": 1417191971
  },
  {
    "city": "Bujumbura",
    "city_ascii": "Bujumbura",
    "lat": -3.3833,
    "lng": 29.3667,
    "country": "Burundi",
    "iso2": "BI",
    "iso3": "BDI",
    "admin_name": "Bujumbura Mairie",
    "capital": "primary",
    "population": 1143202,
    "id": 1108101689
  },
  {
    "city": "Maputo",
    "city_ascii": "Maputo",
    "lat": -25.9153,
    "lng": 32.5764,
    "country": "Mozambique",
    "iso2": "MZ",
    "iso3": "MOZ",
    "admin_name": "Maputo",
    "capital": "primary",
    "population": 1133200,
    "id": 1508074843
  },
  {
    "city": "Tbilisi",
    "city_ascii": "Tbilisi",
    "lat": 41.7225,
    "lng": 44.7925,
    "country": "Georgia",
    "iso2": "GE",
    "iso3": "GEO",
    "admin_name": "Tbilisi",
    "capital": "primary",
    "population": 1118035,
    "id": 1268203191
  },
  {
    "city": "Yerevan",
    "city_ascii": "Yerevan",
    "lat": 40.1814,
    "lng": 44.5144,
    "country": "Armenia",
    "iso2": "AM",
    "iso3": "ARM",
    "admin_name": "Yerevan",
    "capital": "primary",
    "population": 1106300,
    "id": 1051074169
  },
  {
    "city": "Nouakchott",
    "city_ascii": "Nouakchott",
    "lat": 18.0858,
    "lng": -15.9785,
    "country": "Mauritania",
    "iso2": "MR",
    "iso3": "MRT",
    "admin_name": "Nouakchott Ouest",
    "capital": "primary",
    "population": 1077169,
    "id": 1478414984
  },
  {
    "city": "Managua",
    "city_ascii": "Managua",
    "lat": 12.1364,
    "lng": -86.2514,
    "country": "Nicaragua",
    "iso2": "NI",
    "iso3": "NIC",
    "admin_name": "Managua",
    "capital": "primary",
    "population": 1051236,
    "id": 1558296252
  },
  {
    "city": "Ashgabat",
    "city_ascii": "Ashgabat",
    "lat": 37.9375,
    "lng": 58.38,
    "country": "Turkmenistan",
    "iso2": "TM",
    "iso3": "TKM",
    "admin_name": "Aşgabat",
    "capital": "primary",
    "population": 1030063,
    "id": 1795049992
  },
  {
    "city": "Monrovia",
    "city_ascii": "Monrovia",
    "lat": 6.3133,
    "lng": -10.8014,
    "country": "Liberia",
    "iso2": "LR",
    "iso3": "LBR",
    "admin_name": "Montserrado",
    "capital": "primary",
    "population": 1021762,
    "id": 1430477826
  },
  {
    "city": "Stockholm",
    "city_ascii": "Stockholm",
    "lat": 59.3275,
    "lng": 18.0547,
    "country": "Sweden",
    "iso2": "SE",
    "iso3": "SWE",
    "admin_name": "Stockholm",
    "capital": "primary",
    "population": 995574,
    "id": 1752425602
  },
  {
    "city": "Lilongwe",
    "city_ascii": "Lilongwe",
    "lat": -13.9669,
    "lng": 33.7873,
    "country": "Malawi",
    "iso2": "MW",
    "iso3": "MWI",
    "admin_name": "Lilongwe",
    "capital": "primary",
    "population": 989318,
    "id": 1454688499
  },
  {
    "city": "Port-au-Prince",
    "city_ascii": "Port-au-Prince",
    "lat": 18.5425,
    "lng": -72.3386,
    "country": "Haiti",
    "iso2": "HT",
    "iso3": "HTI",
    "admin_name": "Ouest",
    "capital": "primary",
    "population": 987310,
    "id": 1332401940
  },
  {
    "city": "Asmara",
    "city_ascii": "Asmara",
    "lat": 15.3358,
    "lng": 38.9411,
    "country": "Eritrea",
    "iso2": "ER",
    "iso3": "ERI",
    "admin_name": "Ma’ĭkel",
    "capital": "primary",
    "population": 963000,
    "id": 1232791236
  },
  {
    "city": "Freetown",
    "city_ascii": "Freetown",
    "lat": 8.4833,
    "lng": -13.2331,
    "country": "Sierra Leone",
    "iso2": "SL",
    "iso3": "SLE",
    "admin_name": "Western Area",
    "capital": "primary",
    "population": 951000,
    "id": 1694085071
  },
  {
    "city": "Vientiane",
    "city_ascii": "Vientiane",
    "lat": 17.98,
    "lng": 102.63,
    "country": "Laos",
    "iso2": "LA",
    "iso3": "LAO",
    "admin_name": "Viangchan",
    "capital": "primary",
    "population": 948487,
    "id": 1418732714
  },
  {
    "city": "Jerusalem",
    "city_ascii": "Jerusalem",
    "lat": 31.7789,
    "lng": 35.2256,
    "country": "Israel",
    "iso2": "IL",
    "iso3": "ISR",
    "admin_name": "Jerusalem",
    "capital": "primary",
    "population": 936425,
    "id": 1376261644
  },
  {
    "city": "Bangui",
    "city_ascii": "Bangui",
    "lat": 4.3733,
    "lng": 18.5628,
    "country": "Central African Republic",
    "iso2": "CF",
    "iso3": "CAF",
    "admin_name": "Bangui",
    "capital": "primary",
    "population": 889231,
    "id": 1140080881
  },
  {
    "city": "Panama City",
    "city_ascii": "Panama City",
    "lat": 8.9711,
    "lng": -79.5347,
    "country": "Panama",
    "iso2": "PA",
    "iso3": "PAN",
    "admin_name": "Panamá",
    "capital": "primary",
    "population": 880691,
    "id": 1591672475
  },
  {
    "city": "Kathmandu",
    "city_ascii": "Kathmandu",
    "lat": 27.71,
    "lng": 85.32,
    "country": "Nepal",
    "iso2": "NP",
    "iso3": "NPL",
    "capital": "primary",
    "population": 845767,
    "id": 1524589448
  },
  {
    "city": "N’Djamena",
    "city_ascii": "N'Djamena",
    "lat": 12.1053,
    "lng": 15.0447,
    "country": "Chad",
    "iso2": "TD",
    "iso3": "TCD",
    "admin_name": "N’Djamena",
    "capital": "primary",
    "population": 807000,
    "id": 1148708596
  },
  {
    "city": "Libreville",
    "city_ascii": "Libreville",
    "lat": 0.3901,
    "lng": 9.4544,
    "country": "Gabon",
    "iso2": "GA",
    "iso3": "GAB",
    "admin_name": "Estuaire",
    "capital": "primary",
    "population": 797003,
    "id": 1266952885
  },
  {
    "city": "Zagreb",
    "city_ascii": "Zagreb",
    "lat": 45.8131,
    "lng": 15.9772,
    "country": "Croatia",
    "iso2": "HR",
    "iso3": "HRV",
    "admin_name": "Zagreb, Grad",
    "capital": "primary",
    "population": 767131,
    "id": 1191233290
  },
  {
    "city": "Colombo",
    "city_ascii": "Colombo",
    "lat": 6.9167,
    "lng": 79.8333,
    "country": "Sri Lanka",
    "iso2": "LK",
    "iso3": "LKA",
    "admin_name": "Western",
    "capital": "primary",
    "population": 752993,
    "id": 1144251314
  },
  {
    "city": "Manama",
    "city_ascii": "Manama",
    "lat": 26.2233,
    "lng": 50.5875,
    "country": "Bahrain",
    "iso2": "BH",
    "iso3": "BHR",
    "admin_name": "Al ‘Āşimah",
    "capital": "primary",
    "population": 727000,
    "id": 1048989486
  },
  {
    "city": "Oslo",
    "city_ascii": "Oslo",
    "lat": 59.9133,
    "lng": 10.7389,
    "country": "Norway",
    "iso2": "NO",
    "iso3": "NOR",
    "admin_name": "Oslo",
    "capital": "primary",
    "population": 709037,
    "id": 1578324706
  },
  {
    "city": "Cotonou",
    "city_ascii": "Cotonou",
    "lat": 6.3667,
    "lng": 2.4333,
    "country": "Benin",
    "iso2": "BJ",
    "iso3": "BEN",
    "admin_name": "Littoral",
    "capital": "primary",
    "population": 679012,
    "id": 1204955174
  },
  {
    "city": "Chisinau",
    "city_ascii": "Chisinau",
    "lat": 47.0228,
    "lng": 28.8353,
    "country": "Moldova",
    "iso2": "MD",
    "iso3": "MDA",
    "admin_name": "Chişinău",
    "capital": "primary",
    "population": 639000,
    "id": 1498011437
  },
  {
    "city": "Tallinn",
    "city_ascii": "Tallinn",
    "lat": 59.4372,
    "lng": 24.7453,
    "country": "Estonia",
    "iso2": "EE",
    "iso3": "EST",
    "admin_name": "Tallinn",
    "capital": "primary",
    "population": 638076,
    "id": 1233260021
  },
  {
    "city": "Riga",
    "city_ascii": "Riga",
    "lat": 56.9475,
    "lng": 24.1069,
    "country": "Latvia",
    "iso2": "LV",
    "iso3": "LVA",
    "admin_name": "Rīga",
    "capital": "primary",
    "population": 605273,
    "id": 1428586192
  },
  {
    "city": "Djibouti",
    "city_ascii": "Djibouti",
    "lat": 11.5944,
    "lng": 43.1481,
    "country": "Djibouti",
    "iso2": "DJ",
    "iso3": "DJI",
    "admin_name": "Djibouti",
    "capital": "primary",
    "population": 603900,
    "id": 1262028958
  },
  {
    "city": "Tunis",
    "city_ascii": "Tunis",
    "lat": 36.8064,
    "lng": 10.1817,
    "country": "Tunisia",
    "iso2": "TN",
    "iso3": "TUN",
    "admin_name": "Tunis",
    "capital": "primary",
    "population": 599368,
    "id": 1788742103
  },
  {
    "city": "Dublin",
    "city_ascii": "Dublin",
    "lat": 53.3497,
    "lng": -6.2603,
    "country": "Ireland",
    "iso2": "IE",
    "iso3": "IRL",
    "admin_name": "Dublin",
    "capital": "primary",
    "population": 592713,
    "id": 1372595407
  },
  {
    "city": "Gaza",
    "city_ascii": "Gaza",
    "lat": 31.5069,
    "lng": 34.456,
    "country": "Gaza Strip",
    "iso2": "XG",
    "iso3": "XGZ",
    "capital": "primary",
    "population": 590481,
    "id": 1916116052
  },
  {
    "city": "Vilnius",
    "city_ascii": "Vilnius",
    "lat": 54.6872,
    "lng": 25.28,
    "country": "Lithuania",
    "iso2": "LT",
    "iso3": "LTU",
    "admin_name": "Vilniaus Miestas",
    "capital": "primary",
    "population": 581475,
    "id": 1440887149
  },
  {
    "city": "Kingston",
    "city_ascii": "Kingston",
    "lat": 17.9714,
    "lng": -76.7931,
    "country": "Jamaica",
    "iso2": "JM",
    "iso3": "JAM",
    "admin_name": "Kingston",
    "capital": "primary",
    "population": 580000,
    "id": 1388709177
  },
  {
    "city": "Macau",
    "city_ascii": "Macau",
    "lat": 22.2006,
    "lng": 113.5461,
    "country": "Macau",
    "iso2": "MO",
    "iso3": "MAC",
    "population": 568700,
    "id": 1446227359
  },
  {
    "city": "Lisbon",
    "city_ascii": "Lisbon",
    "lat": 38.7122,
    "lng": -9.134,
    "country": "Portugal",
    "iso2": "PT",
    "iso3": "PRT",
    "admin_name": "Lisboa",
    "capital": "primary",
    "population": 548703,
    "id": 1620619017
  },
  {
    "city": "Bissau",
    "city_ascii": "Bissau",
    "lat": 11.85,
    "lng": -15.5667,
    "country": "Guinea-Bissau",
    "iso2": "GW",
    "iso3": "GNB",
    "admin_name": "Bissau",
    "capital": "primary",
    "population": 492004,
    "id": 1624168850
  },
  {
    "city": "Valletta",
    "city_ascii": "Valletta",
    "lat": 35.8983,
    "lng": 14.5125,
    "country": "Malta",
    "iso2": "MT",
    "iso3": "MLT",
    "admin_name": "Valletta",
    "capital": "primary",
    "population": 480134,
    "id": 1470574399
  },
  {
    "city": "Asunción",
    "city_ascii": "Asuncion",
    "lat": -25.2945,
    "lng": -57.6435,
    "country": "Paraguay",
    "iso2": "PY",
    "iso3": "PRY",
    "admin_name": "Asunción",
    "capital": "primary",
    "population": 477346,
    "id": 1600057911
  },
  {
    "city": "Bratislava",
    "city_ascii": "Bratislava",
    "lat": 48.1447,
    "lng": 17.1128,
    "country": "Slovakia",
    "iso2": "SK",
    "iso3": "SVK",
    "admin_name": "Bratislava",
    "capital": "primary",
    "population": 475503,
    "id": 1703195001
  },
  {
    "city": "Juba",
    "city_ascii": "Juba",
    "lat": 4.83,
    "lng": 31.58,
    "country": "South Sudan",
    "iso2": "SS",
    "iso3": "SSD",
    "admin_name": "Central Equatoria",
    "capital": "primary",
    "population": 459342,
    "id": 1728444337
  },
  {
    "city": "Zürich",
    "city_ascii": "Zurich",
    "lat": 47.3744,
    "lng": 8.5411,
    "country": "Switzerland",
    "iso2": "CH",
    "iso3": "CHE",
    "admin_name": "Zürich",
    "capital": "admin",
    "population": 448664,
    "id": 1756539143
  },
  {
    "city": "Windhoek",
    "city_ascii": "Windhoek",
    "lat": -22.57,
    "lng": 17.0836,
    "country": "Namibia",
    "iso2": "NA",
    "iso3": "NAM",
    "admin_name": "Khomas",
    "capital": "primary",
    "population": 431000,
    "id": 1516802003
  },
  {
    "city": "Skopje",
    "city_ascii": "Skopje",
    "lat": 41.9961,
    "lng": 21.4317,
    "country": "North Macedonia",
    "iso2": "MK",
    "iso3": "MKD",
    "admin_name": "Skopje",
    "capital": "primary",
    "population": 422540,
    "id": 1807600615
  },
  {
    "city": "Tirana",
    "city_ascii": "Tirana",
    "lat": 41.3272,
    "lng": 19.8186,
    "country": "Albania",
    "iso2": "AL",
    "iso3": "ALB",
    "admin_name": "Tiranë",
    "capital": "primary",
    "population": 418495,
    "id": 1008162156
  },
  {
    "city": "Banjul",
    "city_ascii": "Banjul",
    "lat": 13.4581,
    "lng": -16.5786,
    "country": "Gambia, The",
    "iso2": "GM",
    "iso3": "GMB",
    "admin_name": "Banjul",
    "capital": "primary",
    "population": 413397,
    "id": 1270723713
  },
  {
    "city": "Maseru",
    "city_ascii": "Maseru",
    "lat": -29.31,
    "lng": 27.48,
    "country": "Lesotho",
    "iso2": "LS",
    "iso3": "LSO",
    "admin_name": "Maseru",
    "capital": "primary",
    "population": 343541,
    "id": 1426977668
  },
  {
    "city": "Nicosia",
    "city_ascii": "Nicosia",
    "lat": 35.1725,
    "lng": 33.365,
    "country": "Cyprus",
    "iso2": "CY",
    "iso3": "CYP",
    "admin_name": "Lefkosía",
    "capital": "primary",
    "population": 330000,
    "id": 1196944155
  },
  {
    "city": "Saint-Denis",
    "city_ascii": "Saint-Denis",
    "lat": -20.8789,
    "lng": 55.4481,
    "country": "Reunion",
    "iso2": "RE",
    "iso3": "REU",
    "capital": "primary",
    "population": 319141,
    "id": 1638024662
  },
  {
    "city": "Port Moresby",
    "city_ascii": "Port Moresby",
    "lat": -9.4789,
    "lng": 147.1494,
    "country": "Papua New Guinea",
    "iso2": "PG",
    "iso3": "PNG",
    "admin_name": "National Capital",
    "capital": "primary",
    "population": 317374,
    "id": 1598685395
  },
  {
    "city": "Malabo",
    "city_ascii": "Malabo",
    "lat": 3.7456,
    "lng": 8.7744,
    "country": "Equatorial Guinea",
    "iso2": "GQ",
    "iso3": "GNQ",
    "admin_name": "Bioko Norte",
    "capital": "primary",
    "population": 297000,
    "id": 1226861333
  },
  {
    "city": "Ljubljana",
    "city_ascii": "Ljubljana",
    "lat": 46.0514,
    "lng": 14.5061,
    "country": "Slovenia",
    "iso2": "SI",
    "iso3": "SVN",
    "admin_name": "Ljubljana",
    "capital": "primary",
    "population": 284293,
    "id": 1705917455
  },
  {
    "city": "Nassau",
    "city_ascii": "Nassau",
    "lat": 25.0442,
    "lng": -77.3503,
    "country": "Bahamas, The",
    "iso2": "BS",
    "iso3": "BHS",
    "capital": "primary",
    "population": 274400,
    "id": 1044318561
  },
  {
    "city": "Fort-de-France",
    "city_ascii": "Fort-de-France",
    "lat": 14.6,
    "lng": -61.0667,
    "country": "Martinique",
    "iso2": "MQ",
    "iso3": "MTQ",
    "capital": "primary",
    "population": 253995,
    "id": 1474969110
  },
  {
    "city": "Pointe-à-Pitre",
    "city_ascii": "Pointe-a-Pitre",
    "lat": 16.2411,
    "lng": -61.5331,
    "country": "Guadeloupe",
    "iso2": "GP",
    "iso3": "GLP",
    "population": 250952,
    "id": 1312460524
  },
  {
    "city": "Sarajevo",
    "city_ascii": "Sarajevo",
    "lat": 43.8564,
    "lng": 18.4131,
    "country": "Bosnia and Herzegovina",
    "iso2": "BA",
    "iso3": "BIH",
    "admin_name": "Bosnia and Herzegovina, Federation of",
    "capital": "primary",
    "population": 244000,
    "id": 1070966777
  },
  {
    "city": "Paramaribo",
    "city_ascii": "Paramaribo",
    "lat": 5.8522,
    "lng": -55.2039,
    "country": "Suriname",
    "iso2": "SR",
    "iso3": "SUR",
    "admin_name": "Paramaribo",
    "capital": "primary",
    "population": 240924,
    "id": 1740518660
  },
  {
    "city": "Gaborone",
    "city_ascii": "Gaborone",
    "lat": -24.6569,
    "lng": 25.9086,
    "country": "Botswana",
    "iso2": "BW",
    "iso3": "BWA",
    "admin_name": "Gaborone",
    "capital": "primary",
    "population": 235884,
    "id": 1072756768
  },
  {
    "city": "Georgetown",
    "city_ascii": "Georgetown",
    "lat": 6.8011,
    "lng": -58.155,
    "country": "Guyana",
    "iso2": "GY",
    "iso3": "GUY",
    "admin_name": "Demerara-Mahaica",
    "capital": "primary",
    "population": 235017,
    "id": 1328160906
  },
  {
    "city": "Dili",
    "city_ascii": "Dili",
    "lat": -8.5594,
    "lng": 125.5795,
    "country": "Timor-Leste",
    "iso2": "TL",
    "iso3": "TLS",
    "admin_name": "Díli",
    "capital": "primary",
    "population": 222323,
    "id": 1626308942
  },
  {
    "city": "Prizren",
    "city_ascii": "Prizren",
    "lat": 42.2139,
    "lng": 20.7397,
    "country": "Kosovo",
    "iso2": "XK",
    "iso3": "XKS",
    "admin_name": "Prizren",
    "capital": "admin",
    "population": 220128,
    "id": 1901360309
  },
  {
    "city": "Hebron",
    "city_ascii": "Hebron",
    "lat": 31.5293,
    "lng": 35.0938,
    "country": "West Bank",
    "iso2": "XW",
    "iso3": "XWB",
    "population": 201063,
    "id": 1934166495
  },
  {
    "city": "Nouméa",
    "city_ascii": "Noumea",
    "lat": -22.2625,
    "lng": 166.4443,
    "country": "New Caledonia",
    "iso2": "NC",
    "iso3": "NCL",
    "admin_name": "Province Sud",
    "capital": "primary",
    "population": 182341,
    "id": 1540958092
  },
  {
    "city": "Podgorica",
    "city_ascii": "Podgorica",
    "lat": 42.4414,
    "lng": 19.2628,
    "country": "Montenegro",
    "iso2": "ME",
    "iso3": "MNE",
    "admin_name": "Podgorica",
    "capital": "primary",
    "population": 172139,
    "id": 1499454516
  },
  {
    "city": "Willemstad",
    "city_ascii": "Willemstad",
    "lat": 12.108,
    "lng": -68.935,
    "country": "Curaçao",
    "iso2": "CW",
    "iso3": "CUW",
    "capital": "primary",
    "population": 150000,
    "id": 1531000000
  },
  {
    "city": "Port Louis",
    "city_ascii": "Port Louis",
    "lat": -20.1644,
    "lng": 57.5042,
    "country": "Mauritius",
    "iso2": "MU",
    "iso3": "MUS",
    "admin_name": "Port Louis",
    "capital": "primary",
    "population": 149194,
    "id": 1480131261
  },
  {
    "city": "Reykjavík",
    "city_ascii": "Reykjavik",
    "lat": 64.1458,
    "lng": -21.9425,
    "country": "Iceland",
    "iso2": "IS",
    "iso3": "ISL",
    "admin_name": "Reykjavík",
    "capital": "primary",
    "population": 139875,
    "id": 1352327190
  },
  {
    "city": "Male",
    "city_ascii": "Male",
    "lat": 4.1753,
    "lng": 73.5089,
    "country": "Maldives",
    "iso2": "MV",
    "iso3": "MDV",
    "admin_name": "Maale",
    "capital": "primary",
    "population": 133019,
    "id": 1462441685
  },
  {
    "city": "Luxembourg",
    "city_ascii": "Luxembourg",
    "lat": 49.6117,
    "lng": 6.1319,
    "country": "Luxembourg",
    "iso2": "LU",
    "iso3": "LUX",
    "admin_name": "Luxembourg",
    "capital": "primary",
    "population": 132780,
    "id": 1442262731
  },
  {
    "city": "Papeete",
    "city_ascii": "Papeete",
    "lat": -17.5334,
    "lng": -149.5667,
    "country": "French Polynesia",
    "iso2": "PF",
    "iso3": "PYF",
    "admin_name": "Îles du Vent",
    "capital": "primary",
    "population": 131695,
    "id": 1258907380
  },
  {
    "city": "Maina",
    "city_ascii": "Maina",
    "lat": 13.4692,
    "lng": 144.7332,
    "country": "Guam",
    "iso2": "GU",
    "iso3": "GUM",
    "population": 122411,
    "id": 1316874021
  },
  {
    "city": "Thimphu",
    "city_ascii": "Thimphu",
    "lat": 27.4722,
    "lng": 89.6361,
    "country": "Bhutan",
    "iso2": "BT",
    "iso3": "BTN",
    "admin_name": "Thimphu",
    "capital": "primary",
    "population": 114551,
    "id": 1064010361
  },
  {
    "city": "Manzini",
    "city_ascii": "Manzini",
    "lat": -26.495,
    "lng": 31.388,
    "country": "Eswatini",
    "iso2": "SZ",
    "iso3": "SWZ",
    "admin_name": "Manzini",
    "capital": "admin",
    "population": 110508,
    "id": 1748177431
  },
  {
    "city": "Bridgetown",
    "city_ascii": "Bridgetown",
    "lat": 13.0969,
    "lng": -59.6131,
    "country": "Barbados",
    "iso2": "BB",
    "iso3": "BRB",
    "admin_name": "Saint Michael",
    "capital": "primary",
    "population": 110000,
    "id": 1052274244
  },
  {
    "city": "Chaguanas",
    "city_ascii": "Chaguanas",
    "lat": 10.5167,
    "lng": -61.4,
    "country": "Trinidad and Tobago",
    "iso2": "TT",
    "iso3": "TTO",
    "admin_name": "Chaguanas",
    "capital": "admin",
    "population": 101297,
    "id": 1780795054
  },
  {
    "city": "Suva",
    "city_ascii": "Suva",
    "lat": -18.1333,
    "lng": 178.4333,
    "country": "Fiji",
    "iso2": "FJ",
    "iso3": "FJI",
    "admin_name": "Rewa",
    "capital": "primary",
    "population": 88271,
    "id": 1242615095
  },
  {
    "city": "Honiara",
    "city_ascii": "Honiara",
    "lat": -9.4333,
    "lng": 159.95,
    "country": "Solomon Islands",
    "iso2": "SB",
    "iso3": "SLB",
    "admin_name": "Honiara",
    "capital": "primary",
    "population": 84520,
    "id": 1090737486
  },
  {
    "city": "São Tomé",
    "city_ascii": "Sao Tome",
    "lat": 0.3361,
    "lng": 6.7306,
    "country": "Sao Tome and Principe",
    "iso2": "ST",
    "iso3": "STP",
    "admin_name": "Água Grande",
    "capital": "primary",
    "population": 71868,
    "id": 1678301324
  },
  {
    "city": "Mamoudzou",
    "city_ascii": "Mamoudzou",
    "lat": -12.7806,
    "lng": 45.2278,
    "country": "Mayotte",
    "iso2": "YT",
    "iso3": "MYT",
    "capital": "primary",
    "population": 71437,
    "id": 1175099654
  },
  {
    "city": "Mindelo",
    "city_ascii": "Mindelo",
    "lat": 16.886,
    "lng": -24.988,
    "country": "Cabo Verde",
    "iso2": "CV",
    "iso3": "CPV",
    "admin_name": "São Vicente",
    "capital": "admin",
    "population": 70468,
    "id": 1132180389
  },
  {
    "city": "Castries",
    "city_ascii": "Castries",
    "lat": 14.0108,
    "lng": -60.9894,
    "country": "Saint Lucia",
    "iso2": "LC",
    "iso3": "LCA",
    "admin_name": "Castries",
    "capital": "primary",
    "population": 70000,
    "id": 1662922505
  },
  {
    "city": "Cayenne",
    "city_ascii": "Cayenne",
    "lat": 4.933,
    "lng": -52.33,
    "country": "French Guiana",
    "iso2": "GF",
    "iso3": "GUF",
    "capital": "primary",
    "population": 61550,
    "id": 1254304969
  },
  {
    "city": "Bandar Seri Begawan",
    "city_ascii": "Bandar Seri Begawan",
    "lat": 4.8903,
    "lng": 114.9422,
    "country": "Brunei",
    "iso2": "BN",
    "iso3": "BRN",
    "admin_name": "Brunei dan Muara",
    "capital": "primary",
    "population": 50000,
    "id": 1096465895
  },
  {
    "city": "Port-Vila",
    "city_ascii": "Port-Vila",
    "lat": -17.7333,
    "lng": 168.3167,
    "country": "Vanuatu",
    "iso2": "VU",
    "iso3": "VUT",
    "admin_name": "Shefa",
    "capital": "primary",
    "population": 49034,
    "id": 1548805075
  },
  {
    "city": "Belize City",
    "city_ascii": "Belize City",
    "lat": 17.4986,
    "lng": -88.1886,
    "country": "Belize",
    "iso2": "BZ",
    "iso3": "BLZ",
    "admin_name": "Belize",
    "capital": "admin",
    "population": 38500,
    "id": 1084150679
  },
  {
    "city": "Monaco",
    "city_ascii": "Monaco",
    "lat": 43.7333,
    "lng": 7.4167,
    "country": "Monaco",
    "iso2": "MC",
    "iso3": "MCO",
    "capital": "primary",
    "population": 36371,
    "id": 1492854256
  },
  {
    "city": "Apia",
    "city_ascii": "Apia",
    "lat": -13.8333,
    "lng": -171.75,
    "country": "Samoa",
    "iso2": "WS",
    "iso3": "WSM",
    "admin_name": "Tuamasaga",
    "capital": "primary",
    "population": 35974,
    "id": 1882489296
  },
  {
    "city": "Gibraltar",
    "city_ascii": "Gibraltar",
    "lat": 36.14,
    "lng": -5.35,
    "country": "Gibraltar",
    "iso2": "GI",
    "iso3": "GIB",
    "capital": "primary",
    "population": 34003,
    "id": 1292385245
  },
  {
    "city": "Saint George’s",
    "city_ascii": "Saint George's",
    "lat": 12.05,
    "lng": -61.75,
    "country": "Grenada",
    "iso2": "GD",
    "iso3": "GRD",
    "admin_name": "Saint George",
    "capital": "primary",
    "population": 33734,
    "id": 1308891766
  },
  {
    "city": "Saint Helier",
    "city_ascii": "Saint Helier",
    "lat": 49.1858,
    "lng": -2.11,
    "country": "Jersey",
    "iso2": "JE",
    "iso3": "JEY",
    "capital": "primary",
    "population": 33522,
    "id": 1832490253
  },
  {
    "city": "Mutsamudu",
    "city_ascii": "Mutsamudu",
    "lat": -12.1675,
    "lng": 44.3939,
    "country": "Comoros",
    "iso2": "KM",
    "iso3": "COM",
    "admin_name": "Anjouan",
    "capital": "admin",
    "population": 30000,
    "id": 1174036583
  },
  {
    "city": "Majuro",
    "city_ascii": "Majuro",
    "lat": 7.0833,
    "lng": 171.3833,
    "country": "Marshall Islands",
    "iso2": "MH",
    "iso3": "MHL",
    "admin_name": "Majuro",
    "capital": "primary",
    "population": 30000,
    "id": 1584000000
  },
  {
    "city": "Tarawa",
    "city_ascii": "Tarawa",
    "lat": 1.3382,
    "lng": 173.0176,
    "country": "Kiribati",
    "iso2": "KI",
    "iso3": "KIR",
    "capital": "primary",
    "population": 28802,
    "id": 1296152641
  },
  {
    "city": "Oranjestad",
    "city_ascii": "Oranjestad",
    "lat": 12.5186,
    "lng": -70.0358,
    "country": "Aruba",
    "iso2": "AW",
    "iso3": "ABW",
    "capital": "primary",
    "population": 28658,
    "id": 1533513057
  },
  {
    "city": "Douglas",
    "city_ascii": "Douglas",
    "lat": 54.15,
    "lng": -4.4775,
    "country": "Isle of Man",
    "iso2": "IM",
    "iso3": "IMN",
    "capital": "primary",
    "population": 27938,
    "id": 1833688345
  },
  {
    "city": "George Town",
    "city_ascii": "George Town",
    "lat": 19.295,
    "lng": -81.3811,
    "country": "Cayman Islands",
    "iso2": "KY",
    "iso3": "CYM",
    "capital": "primary",
    "population": 27704,
    "id": 1136159124
  },
  {
    "city": "Nuku‘alofa",
    "city_ascii": "Nuku`alofa",
    "lat": -21.1333,
    "lng": -175.2,
    "country": "Tonga",
    "iso2": "TO",
    "iso3": "TON",
    "admin_name": "Tongatapu",
    "capital": "primary",
    "population": 27600,
    "id": 1776737461
  },
  {
    "city": "Victoria",
    "city_ascii": "Victoria",
    "lat": -4.6231,
    "lng": 55.4525,
    "country": "Seychelles",
    "iso2": "SC",
    "iso3": "SYC",
    "admin_name": "Mont Buxton",
    "capital": "primary",
    "population": 24701,
    "id": 1690193579
  },
  {
    "city": "Calliaqua",
    "city_ascii": "Calliaqua",
    "lat": 13.1308,
    "lng": -61.1928,
    "country": "Saint Vincent and the Grenadines",
    "iso2": "VC",
    "iso3": "VCT",
    "admin_name": "Saint George",
    "population": 24205,
    "id": 1670040822
  },
  {
    "city": "Andorra la Vella",
    "city_ascii": "Andorra la Vella",
    "lat": 42.5,
    "lng": 1.5,
    "country": "Andorra",
    "iso2": "AD",
    "iso3": "AND",
    "admin_name": "Andorra la Vella",
    "capital": "primary",
    "population": 22615,
    "id": 1020828846
  },
  {
    "city": "Saint John’s",
    "city_ascii": "Saint John's",
    "lat": 17.1167,
    "lng": -61.85,
    "country": "Antigua and Barbuda",
    "iso2": "AG",
    "iso3": "ATG",
    "admin_name": "Saint John",
    "capital": "primary",
    "population": 22219,
    "id": 1028912067
  },
  {
    "city": "Saint Peter Port",
    "city_ascii": "Saint Peter Port",
    "lat": 49.4555,
    "lng": -2.5368,
    "country": "Guernsey",
    "iso2": "GG",
    "iso3": "GGY",
    "capital": "primary",
    "population": 18958,
    "id": 1831991870
  },
  {
    "city": "Nuuk",
    "city_ascii": "Nuuk",
    "lat": 64.1767,
    "lng": -51.7361,
    "country": "Greenland",
    "iso2": "GL",
    "iso3": "GRL",
    "admin_name": "Sermersooq",
    "capital": "primary",
    "population": 18326,
    "id": 1304028354
  },
  {
    "city": "Roseau",
    "city_ascii": "Roseau",
    "lat": 15.3014,
    "lng": -61.3883,
    "country": "Dominica",
    "iso2": "DM",
    "iso3": "DMA",
    "admin_name": "Saint George",
    "capital": "primary",
    "population": 14725,
    "id": 1212060440
  },
  {
    "city": "Weno",
    "city_ascii": "Weno",
    "lat": 7.4417,
    "lng": 151.8583,
    "country": "Micronesia, Federated States of",
    "iso2": "FM",
    "iso3": "FSM",
    "admin_name": "Chuuk",
    "capital": "admin",
    "population": 13856,
    "id": 1583964118
  },
  {
    "city": "Tórshavn",
    "city_ascii": "Torshavn",
    "lat": 62,
    "lng": -6.7833,
    "country": "Faroe Islands",
    "iso2": "FO",
    "iso3": "FRO",
    "admin_name": "Tórshavn",
    "capital": "primary",
    "population": 13326,
    "id": 1234904517
  },
  {
    "city": "Basseterre",
    "city_ascii": "Basseterre",
    "lat": 17.3,
    "lng": -62.7333,
    "country": "Saint Kitts and Nevis",
    "iso2": "KN",
    "iso3": "KNA",
    "admin_name": "Saint George Basseterre",
    "capital": "primary",
    "population": 13220,
    "id": 1659198919
  },
  {
    "city": "Road Town",
    "city_ascii": "Road Town",
    "lat": 18.4167,
    "lng": -64.6167,
    "country": "Virgin Islands, British",
    "iso2": "VG",
    "iso3": "VGB",
    "capital": "primary",
    "population": 12603,
    "id": 1092732412
  },
  {
    "city": "Pago Pago",
    "city_ascii": "Pago Pago",
    "lat": -14.274,
    "lng": -170.7046,
    "country": "American Samoa",
    "iso2": "AS",
    "iso3": "ASM",
    "capital": "primary",
    "population": 12576,
    "id": 1016976740
  },
  {
    "city": "Serravalle",
    "city_ascii": "Serravalle",
    "lat": 43.9717,
    "lng": 12.4817,
    "country": "San Marino",
    "iso2": "SM",
    "iso3": "SMR",
    "admin_name": "Serravalle",
    "capital": "admin",
    "population": 10878,
    "id": 1674000000
  },
  {
    "city": "Kralendijk",
    "city_ascii": "Kralendijk",
    "lat": 12.1444,
    "lng": -68.2656,
    "country": "Bonaire, Sint Eustatius, and Saba",
    "iso2": "BQ",
    "iso3": "BES",
    "admin_name": "Bonaire",
    "capital": "admin",
    "population": 10620,
    "id": 1528693863
  },
  {
    "city": "Koror",
    "city_ascii": "Koror",
    "lat": 7.3419,
    "lng": 134.4792,
    "country": "Palau",
    "iso2": "PW",
    "iso3": "PLW",
    "admin_name": "Koror",
    "population": 8744,
    "id": 1585174728
  },
  {
    "city": "Funafuti",
    "city_ascii": "Funafuti",
    "lat": -8.5167,
    "lng": 179.2,
    "country": "Tuvalu",
    "iso2": "TV",
    "iso3": "TUV",
    "admin_name": "Funafuti",
    "capital": "primary",
    "population": 6320,
    "id": 1798251391
  },
  {
    "city": "Schaan",
    "city_ascii": "Schaan",
    "lat": 47.1667,
    "lng": 9.5097,
    "country": "Liechtenstein",
    "iso2": "LI",
    "iso3": "LIE",
    "admin_name": "Schaan",
    "capital": "admin",
    "population": 6039,
    "id": 1438982330
  },
  {
    "city": "Marigot",
    "city_ascii": "Marigot",
    "lat": 18.0706,
    "lng": -63.0847,
    "country": "Saint Martin",
    "iso2": "MF",
    "iso3": "MAF",
    "capital": "primary",
    "population": 5700,
    "id": 1663133172
  },
  {
    "city": "Saint-Pierre",
    "city_ascii": "Saint-Pierre",
    "lat": 46.7817,
    "lng": -56.1736,
    "country": "Saint Pierre and Miquelon",
    "iso2": "PM",
    "iso3": "SPM",
    "capital": "primary",
    "population": 5223,
    "id": 1666340272
  },
  {
    "city": "Avarua",
    "city_ascii": "Avarua",
    "lat": -21.207,
    "lng": -159.771,
    "country": "Cook Islands",
    "iso2": "CK",
    "iso3": "COK",
    "capital": "primary",
    "population": 4009,
    "id": 1184217570
  },
  {
    "city": "Grand Turk",
    "city_ascii": "Grand Turk",
    "lat": 21.459,
    "lng": -71.139,
    "country": "Turks and Caicos Islands",
    "iso2": "TC",
    "iso3": "TCA",
    "capital": "primary",
    "population": 3700,
    "id": 1796965313
  },
  {
    "city": "The Valley",
    "city_ascii": "The Valley",
    "lat": 18.2208,
    "lng": -63.0517,
    "country": "Anguilla",
    "iso2": "AI",
    "iso3": "AIA",
    "capital": "primary",
    "population": 3269,
    "id": 1660698387
  },
  {
    "city": "Capitol Hill",
    "city_ascii": "Capitol Hill",
    "lat": 15.2137,
    "lng": 145.7546,
    "country": "Northern Mariana Islands",
    "iso2": "MP",
    "iso3": "MNP",
    "capital": "primary",
    "population": 2500,
    "id": 1580556972
  },
  {
    "city": "Gustavia",
    "city_ascii": "Gustavia",
    "lat": 17.8979,
    "lng": -62.8506,
    "country": "Saint Barthelemy",
    "iso2": "BL",
    "iso3": "BLM",
    "capital": "primary",
    "population": 2300,
    "id": 1652681565
  },
  {
    "city": "Stanley",
    "city_ascii": "Stanley",
    "lat": -51.7,
    "lng": -57.85,
    "country": "Falkland Islands (Islas Malvinas)",
    "iso2": "FK",
    "iso3": "FLK",
    "capital": "primary",
    "population": 2213,
    "id": 1238780509
  },
  {
    "city": "Philipsburg",
    "city_ascii": "Philipsburg",
    "lat": 18.0237,
    "lng": -63.0458,
    "country": "Sint Maarten",
    "iso2": "SX",
    "iso3": "SXM",
    "capital": "primary",
    "population": 1894,
    "id": 1534859858
  },
  {
    "city": "Longyearbyen",
    "city_ascii": "Longyearbyen",
    "lat": 78.2167,
    "lng": 15.6333,
    "country": "Svalbard",
    "iso2": "XR",
    "iso3": "XSV",
    "capital": "primary",
    "population": 1753,
    "id": 1930654114
  },
  {
    "city": "Flying Fish Cove",
    "city_ascii": "Flying Fish Cove",
    "lat": -10.4261,
    "lng": 105.6728,
    "country": "Christmas Island",
    "iso2": "CX",
    "iso3": "CXR",
    "capital": "primary",
    "population": 1599,
    "id": 1162889600
  },
  {
    "city": "Mata-Utu",
    "city_ascii": "Mata-Utu",
    "lat": -13.2825,
    "lng": -176.1736,
    "country": "Wallis and Futuna",
    "iso2": "WF",
    "iso3": "WLF",
    "admin_name": "Uvea",
    "capital": "primary",
    "population": 1029,
    "id": 1876784844
  },
  {
    "city": "Hamilton",
    "city_ascii": "Hamilton",
    "lat": 32.2942,
    "lng": -64.7819,
    "country": "Bermuda",
    "iso2": "BM",
    "iso3": "BMU",
    "admin_name": "Hamilton",
    "capital": "primary",
    "population": 854,
    "id": 1060000000
  },
  {
    "city": "Vatican City",
    "city_ascii": "Vatican City",
    "lat": 41.904,
    "lng": 12.453,
    "country": "Vatican City",
    "iso2": "VA",
    "iso3": "VAT",
    "capital": "primary",
    "population": 825,
    "id": 1336000000
  },
  {
    "city": "Yaren",
    "city_ascii": "Yaren",
    "lat": -0.5456,
    "lng": 166.925,
    "country": "Nauru",
    "iso2": "NR",
    "iso3": "NRU",
    "admin_name": "Yaren",
    "capital": "primary",
    "population": 803,
    "id": 1520790128
  },
  {
    "city": "Jamestown",
    "city_ascii": "Jamestown",
    "lat": -15.9251,
    "lng": -5.7179,
    "country": "Saint Helena, Ascension, and Tristan da Cunha",
    "iso2": "SH",
    "iso3": "SHN",
    "admin_name": "Saint Helena",
    "capital": "primary",
    "population": 714,
    "id": 1654761576
  },
  {
    "city": "Alofi",
    "city_ascii": "Alofi",
    "lat": -19.056,
    "lng": -169.921,
    "country": "Niue",
    "iso2": "NU",
    "iso3": "NIU",
    "capital": "primary",
    "population": 597,
    "id": 1570882835
  },
  {
    "city": "Brades",
    "city_ascii": "Brades",
    "lat": 16.7928,
    "lng": -62.2106,
    "country": "Montserrat",
    "iso2": "MS",
    "iso3": "MSR",
    "admin_name": "Saint Peter",
    "capital": "primary",
    "population": 391,
    "id": 1500971198
  },
  {
    "city": "Kingston",
    "city_ascii": "Kingston",
    "lat": -29.0606,
    "lng": 167.9619,
    "country": "Norfolk Island",
    "iso2": "NF",
    "iso3": "NFK",
    "capital": "primary",
    "population": 341,
    "id": 1574121434
  },
  {
    "city": "Grytviken",
    "city_ascii": "Grytviken",
    "lat": -54.2806,
    "lng": -36.508,
    "country": "South Georgia and South Sandwich Islands",
    "iso2": "GS",
    "iso3": "SGS",
    "population": 99,
    "id": 1239048837
  },
  {
    "city": "Adamstown",
    "city_ascii": "Adamstown",
    "lat": -25.0667,
    "lng": -130.0833,
    "country": "Pitcairn Islands",
    "iso2": "PN",
    "iso3": "PCN",
    "capital": "primary",
    "population": 47,
    "id": 1612000000
  },
  {
    "city": "King Edward Point",
    "city_ascii": "King Edward Point",
    "lat": -54.2833,
    "lng": -36.5,
    "country": "South Georgia And South Sandwich Islands",
    "iso2": "GS",
    "iso3": "SGS",
    "capital": "primary",
    "id": 1239048838
  },
  {
    "city": "Charlotte Amalie",
    "city_ascii": "Charlotte Amalie",
    "lat": 18.342,
    "lng": -64.9331,
    "country": "U.S. Virgin Islands",
    "iso2": "VI",
    "iso3": "VIR",
    "admin_name": "Virgin Islands",
    "capital": "primary",
    "id": 1850037473
  },
  {
    "city": "Kolkāta",
    "city_ascii": "Kolkata",
    "lat": 22.5675,
    "lng": 88.37,
    "country": "India",
    "iso2": "IN",
    "iso3": "IND",
    "admin_name": "West Bengal",
    "capital": "admin",
    "population": 21747000,
    "id": 1356060520
  },
  {
    "city": "Shenzhen",
    "city_ascii": "Shenzhen",
    "lat": 22.5415,
    "lng": 114.0596,
    "country": "China",
    "iso2": "CN",
    "iso3": "CHN",
    "admin_name": "Guangdong",
    "capital": "minor",
    "population": 17619000,
    "id": 1156158707
  },
  {
    "city": "Ōsaka",
    "city_ascii": "Osaka",
    "lat": 34.6939,
    "lng": 135.5022,
    "country": "Japan",
    "iso2": "JP",
    "iso3": "JPN",
    "admin_name": "Ōsaka",
    "capital": "admin",
    "population": 15126000,
    "id": 1392419823
  },
  {
    "city": "Chennai",
    "city_ascii": "Chennai",
    "lat": 13.0825,
    "lng": 80.275,
    "country": "India",
    "iso2": "IN",
    "iso3": "IND",
    "admin_name": "Tamil Nādu",
    "capital": "admin",
    "population": 12395000,
    "id": 1356374944
  },
  {
    "city": "Nanyang",
    "city_ascii": "Nanyang",
    "lat": 32.9902,
    "lng": 112.5285,
    "country": "China",
    "iso2": "CN",
    "iso3": "CHN",
    "admin_name": "Henan",
    "population": 9577771,
    "id": 1156192287
  },
  {
    "city": "Fuyang",
    "city_ascii": "Fuyang",
    "lat": 32.89,
    "lng": 115.814,
    "country": "China",
    "iso2": "CN",
    "iso3": "CHN",
    "admin_name": "Anhui",
    "population": 7599913,
    "id": 1156248008
  },
  {
    "city": "Maoming",
    "city_ascii": "Maoming",
    "lat": 21.6627,
    "lng": 110.9255,
    "country": "China",
    "iso2": "CN",
    "iso3": "CHN",
    "admin_name": "Guangdong",
    "capital": "minor",
    "population": 6174050,
    "id": 1156568722
  },
  {
    "city": "Liaocheng",
    "city_ascii": "Liaocheng",
    "lat": 36.4559,
    "lng": 115.9852,
    "country": "China",
    "iso2": "CN",
    "iso3": "CHN",
    "admin_name": "Shandong",
    "capital": "minor",
    "population": 5789863,
    "id": 1156006600
  },
  {
    "city": "Guigang",
    "city_ascii": "Guigang",
    "lat": 23.112,
    "lng": 109.599,
    "country": "China",
    "iso2": "CN",
    "iso3": "CHN",
    "admin_name": "Guangxi",
    "capital": "minor",
    "population": 4316262,
    "id": 1156895251
  },
  {
    "city": "Xiamen",
    "city_ascii": "Xiamen",
    "lat": 24.4796,
    "lng": 118.0889,
    "country": "China",
    "iso2": "CN",
    "iso3": "CHN",
    "admin_name": "Fujian",
    "capital": "minor",
    "population": 3707090,
    "id": 1156212809
  },
  {
    "city": "Tongren",
    "city_ascii": "Tongren",
    "lat": 27.7316,
    "lng": 109.1895,
    "country": "China",
    "iso2": "CN",
    "iso3": "CHN",
    "admin_name": "Guizhou",
    "population": 3168800,
    "id": 1156803442
  },
  {
    "city": "Putian",
    "city_ascii": "Putian",
    "lat": 25.4526,
    "lng": 119.0078,
    "country": "China",
    "iso2": "CN",
    "iso3": "CHN",
    "admin_name": "Fujian",
    "capital": "minor",
    "population": 2900000,
    "id": 1156811601
  },
  {
    "city": "Kaohsiung",
    "city_ascii": "Kaohsiung",
    "lat": 22.615,
    "lng": 120.2975,
    "country": "Taiwan",
    "iso2": "TW",
    "iso3": "TWN",
    "admin_name": "Kaohsiung",
    "capital": "admin",
    "population": 2737660,
    "id": 1158331334
  },
  {
    "city": "Valencia",
    "city_ascii": "Valencia",
    "lat": 10.1833,
    "lng": -68,
    "country": "Venezuela",
    "iso2": "VE",
    "iso3": "VEN",
    "admin_name": "Carabobo",
    "capital": "admin",
    "population": 2585202,
    "id": 1862309871
  },
  {
    "city": "St. Louis",
    "city_ascii": "St. Louis",
    "lat": 38.6359,
    "lng": -90.2451,
    "country": "United States",
    "iso2": "US",
    "iso3": "USA",
    "admin_name": "Missouri",
    "population": 2127843,
    "id": 1840001651
  },
  {
    "city": "Tainan",
    "city_ascii": "Tainan",
    "lat": 22.9833,
    "lng": 120.1833,
    "country": "Taiwan",
    "iso2": "TW",
    "iso3": "TWN",
    "admin_name": "Tainan",
    "capital": "admin",
    "population": 1856642,
    "id": 1158061376
  },
  {
    "city": "Yopougon",
    "city_ascii": "Yopougon",
    "lat": 5.3748,
    "lng": -4.0867,
    "country": "Côte d’Ivoire",
    "iso2": "CI",
    "iso3": "CIV",
    "admin_name": "Abidjan",
    "population": 1571065,
    "id": 1384759584
  },
  {
    "city": "Madurai",
    "city_ascii": "Madurai",
    "lat": 9.9252,
    "lng": 78.1198,
    "country": "India",
    "iso2": "IN",
    "iso3": "IND",
    "admin_name": "Tamil Nādu",
    "capital": "minor",
    "population": 1561129,
    "id": 1356257289
  },
  {
    "city": "Nāsik",
    "city_ascii": "Nasik",
    "lat": 19.9975,
    "lng": 73.7898,
    "country": "India",
    "iso2": "IN",
    "iso3": "IND",
    "admin_name": "Mahārāshtra",
    "population": 1486053,
    "id": 1356562598
  },
  {
    "city": "Bronx",
    "city_ascii": "Bronx",
    "lat": 40.8501,
    "lng": -73.8662,
    "country": "United States",
    "iso2": "US",
    "iso3": "USA",
    "admin_name": "New York",
    "population": 1472654,
    "id": 1840033999
  },
  {
    "city": "Pointe-Noire",
    "city_ascii": "Pointe-Noire",
    "lat": -4.7975,
    "lng": 11.8503,
    "country": "Congo (Brazzaville)",
    "iso2": "CG",
    "iso3": "COG",
    "admin_name": "Pointe-Noire",
    "capital": "admin",
    "population": 1420612,
    "id": 1178411563
  },
  {
    "city": "Maiduguri",
    "city_ascii": "Maiduguri",
    "lat": 11.8372,
    "lng": 13.1542,
    "country": "Nigeria",
    "iso2": "NG",
    "iso3": "NGA",
    "admin_name": "Borno",
    "capital": "admin",
    "population": 1197497,
    "id": 1566540296
  },
  {
    "city": "Batam Centre",
    "city_ascii": "Batam Centre",
    "lat": 1.1272,
    "lng": 104.0556,
    "country": "Indonesia",
    "iso2": "ID",
    "iso3": "IDN",
    "admin_name": "Kepulauan Riau",
    "population": 1196396,
    "id": 1360024213
  },
  {
    "city": "Shymkent",
    "city_ascii": "Shymkent",
    "lat": 42.3167,
    "lng": 69.5958,
    "country": "Kazakhstan",
    "iso2": "KZ",
    "iso3": "KAZ",
    "admin_name": "Shymkent",
    "capital": "admin",
    "population": 1184113,
    "id": 1398791401
  },
  {
    "city": "Zhuji",
    "city_ascii": "Zhuji",
    "lat": 29.7167,
    "lng": 120.2333,
    "country": "China",
    "iso2": "CN",
    "iso3": "CHN",
    "admin_name": "Zhejiang",
    "capital": "minor",
    "population": 1157938,
    "id": 1156504227
  },
  {
    "city": "Rangapukur",
    "city_ascii": "Rangapukur",
    "lat": 25.5206,
    "lng": 89.2147,
    "country": "Bangladesh",
    "iso2": "BD",
    "iso3": "BGD",
    "admin_name": "Rangpur",
    "population": 1031388,
    "id": 1050032005
  },
  {
    "city": "Bareilly",
    "city_ascii": "Bareilly",
    "lat": 28.3667,
    "lng": 79.4306,
    "country": "India",
    "iso2": "IN",
    "iso3": "IND",
    "admin_name": "Uttar Pradesh",
    "population": 1000000,
    "id": 1356698199
  },
  {
    "city": "Chiba",
    "city_ascii": "Chiba",
    "lat": 35.6073,
    "lng": 140.1064,
    "country": "Japan",
    "iso2": "JP",
    "iso3": "JPN",
    "admin_name": "Chiba",
    "capital": "admin",
    "population": 975014,
    "id": 1392107144
  },
  {
    "city": "Dnipro",
    "city_ascii": "Dnipro",
    "lat": 48.4675,
    "lng": 35.04,
    "country": "Ukraine",
    "iso2": "UA",
    "iso3": "UKR",
    "admin_name": "Dnipropetrovska Oblast",
    "capital": "admin",
    "population": 968502,
    "id": 1804152933
  },
  {
    "city": "Portsmouth",
    "city_ascii": "Portsmouth",
    "lat": 50.8058,
    "lng": -1.0872,
    "country": "United Kingdom",
    "iso2": "GB",
    "iso3": "GBR",
    "admin_name": "Portsmouth",
    "population": 855679,
    "id": 1826964096
  },
  {
    "city": "Turin",
    "city_ascii": "Turin",
    "lat": 45.0792,
    "lng": 7.6761,
    "country": "Italy",
    "iso2": "IT",
    "iso3": "ITA",
    "admin_name": "Piedmont",
    "capital": "admin",
    "population": 841600,
    "id": 1380244627
  },
  {
    "city": "Saratov",
    "city_ascii": "Saratov",
    "lat": 51.53,
    "lng": 46.035,
    "country": "Russia",
    "iso2": "RU",
    "iso3": "RUS",
    "admin_name": "Saratovskaya Oblast’",
    "capital": "admin",
    "population": 838042,
    "id": 1643556540
  },
  {
    "city": "Blantyre",
    "city_ascii": "Blantyre",
    "lat": -15.7861,
    "lng": 35.0058,
    "country": "Malawi",
    "iso2": "MW",
    "iso3": "MWI",
    "admin_name": "Blantyre",
    "capital": "admin",
    "population": 800264,
    "id": 1454145012
  },
  {
    "city": "Laiyang",
    "city_ascii": "Laiyang",
    "lat": 36.9758,
    "lng": 120.7136,
    "country": "China",
    "iso2": "CN",
    "iso3": "CHN",
    "admin_name": "Shandong",
    "population": 794986,
    "id": 1156207330
  },
  {
    "city": "Hamhŭng",
    "city_ascii": "Hamhung",
    "lat": 39.9167,
    "lng": 127.5333,
    "country": "Korea, North",
    "iso2": "KP",
    "iso3": "PRK",
    "admin_name": "Hamnam",
    "capital": "admin",
    "population": 768551,
    "id": 1408482040
  },
  {
    "city": "Dodoma",
    "city_ascii": "Dodoma",
    "lat": -6.1731,
    "lng": 35.7419,
    "country": "Tanzania",
    "iso2": "TZ",
    "iso3": "TZA",
    "admin_name": "Dodoma",
    "capital": "primary",
    "population": 765179,
    "id": 1834288497
  },
  {
    "city": "Qingnian",
    "city_ascii": "Qingnian",
    "lat": 36.8494,
    "lng": 115.7061,
    "country": "China",
    "iso2": "CN",
    "iso3": "CHN",
    "admin_name": "Shandong",
    "capital": "minor",
    "population": 760781,
    "id": 1156689964
  },
  {
    "city": "Winnipeg",
    "city_ascii": "Winnipeg",
    "lat": 49.8844,
    "lng": -97.1464,
    "country": "Canada",
    "iso2": "CA",
    "iso3": "CAN",
    "admin_name": "Manitoba",
    "capital": "admin",
    "population": 758515,
    "id": 1124224963
  },
  {
    "city": "Lichuan",
    "city_ascii": "Lichuan",
    "lat": 30.291,
    "lng": 108.9364,
    "country": "China",
    "iso2": "CN",
    "iso3": "CHN",
    "admin_name": "Hubei",
    "population": 750670,
    "id": 1156302762
  },
  {
    "city": "Osogbo",
    "city_ascii": "Osogbo",
    "lat": 7.7667,
    "lng": 4.5667,
    "country": "Nigeria",
    "iso2": "NG",
    "iso3": "NGA",
    "admin_name": "Osun",
    "capital": "admin",
    "population": 731000,
    "id": 1566395088
  },
  {
    "city": "Parachinar",
    "city_ascii": "Parachinar",
    "lat": 33.9,
    "lng": 70.1,
    "country": "Pakistan",
    "iso2": "PK",
    "iso3": "PAK",
    "admin_name": "Khyber Pakhtunkhwa",
    "population": 700000,
    "id": 1586337795
  },
  {
    "city": "Selçuklu",
    "city_ascii": "Selcuklu",
    "lat": 37.8814,
    "lng": 32.4922,
    "country": "Turkey",
    "iso2": "TR",
    "iso3": "TUR",
    "admin_name": "Konya",
    "capital": "minor",
    "population": 690667,
    "id": 1792683478
  },
  {
    "city": "Gothenburg",
    "city_ascii": "Gothenburg",
    "lat": 57.7075,
    "lng": 11.9675,
    "country": "Sweden",
    "iso2": "SE",
    "iso3": "SWE",
    "admin_name": "Västra Götaland",
    "capital": "admin",
    "population": 674529,
    "id": 1752059374
  },
  {
    "city": "Bhāvnagar",
    "city_ascii": "Bhavnagar",
    "lat": 21.76,
    "lng": 72.15,
    "country": "India",
    "iso2": "IN",
    "iso3": "IND",
    "admin_name": "Gujarāt",
    "population": 643382,
    "id": 1356982375
  },
  {
    "city": "Düsseldorf",
    "city_ascii": "Dusseldorf",
    "lat": 51.2256,
    "lng": 6.7767,
    "country": "Germany",
    "iso2": "DE",
    "iso3": "DEU",
    "admin_name": "North Rhine-Westphalia",
    "capital": "admin",
    "population": 631217,
    "id": 1276615258
  },
  {
    "city": "Izhevsk",
    "city_ascii": "Izhevsk",
    "lat": 56.8333,
    "lng": 53.1833,
    "country": "Russia",
    "iso2": "RU",
    "iso3": "RUS",
    "admin_name": "Udmurtiya",
    "capital": "admin",
    "population": 618776,
    "id": 1643983138
  },
  {
    "city": "Tuxtla",
    "city_ascii": "Tuxtla",
    "lat": 16.7528,
    "lng": -93.1167,
    "country": "Mexico",
    "iso2": "MX",
    "iso3": "MEX",
    "admin_name": "Chiapas",
    "capital": "admin",
    "population": 578830,
    "id": 1484832519
  },
  {
    "city": "Sincan",
    "city_ascii": "Sincan",
    "lat": 39.9594,
    "lng": 32.5767,
    "country": "Turkey",
    "iso2": "TR",
    "iso3": "TUR",
    "admin_name": "Ankara",
    "capital": "minor",
    "population": 572609,
    "id": 1792007259
  },
  {
    "city": "Dresden",
    "city_ascii": "Dresden",
    "lat": 51.05,
    "lng": 13.74,
    "country": "Germany",
    "iso2": "DE",
    "iso3": "DEU",
    "admin_name": "Saxony",
    "capital": "admin",
    "population": 566222,
    "id": 1276561036
  },
  {
    "city": "Miluo Chengguanzhen",
    "city_ascii": "Miluo Chengguanzhen",
    "lat": 28.761,
    "lng": 113.16,
    "country": "China",
    "iso2": "CN",
    "iso3": "CHN",
    "admin_name": "Hunan",
    "capital": "minor",
    "population": 560725,
    "id": 1156690651
  },
  {
    "city": "Liverpool",
    "city_ascii": "Liverpool",
    "lat": 53.4072,
    "lng": -2.9917,
    "country": "United Kingdom",
    "iso2": "GB",
    "iso3": "GBR",
    "admin_name": "Liverpool",
    "population": 513441,
    "id": 1826558678
  },
  {
    "city": "Toulouse",
    "city_ascii": "Toulouse",
    "lat": 43.6045,
    "lng": 1.444,
    "country": "France",
    "iso2": "FR",
    "iso3": "FRA",
    "admin_name": "Occitanie",
    "capital": "admin",
    "population": 511684,
    "id": 1250258110
  },
  {
    "city": "Mazatlán",
    "city_ascii": "Mazatlan",
    "lat": 23.2167,
    "lng": -106.4167,
    "country": "Mexico",
    "iso2": "MX",
    "iso3": "MEX",
    "admin_name": "Sinaloa",
    "capital": "minor",
    "population": 501441,
    "id": 1484841466
  },
  {
    "city": "Uberlândia",
    "city_ascii": "Uberlandia",
    "lat": -18.9189,
    "lng": -48.2769,
    "country": "Brazil",
    "iso2": "BR",
    "iso3": "BRA",
    "admin_name": "Minas Gerais",
    "capital": "minor",
    "population": 501214,
    "id": 1076495001
  },
  {
    "city": "Imus",
    "city_ascii": "Imus",
    "lat": 14.4297,
    "lng": 120.9367,
    "country": "Philippines",
    "iso2": "PH",
    "iso3": "PHL",
    "admin_name": "Cavite",
    "population": 496794,
    "id": 1608802508
  },
  {
    "city": "Ciudad López Mateos",
    "city_ascii": "Ciudad Lopez Mateos",
    "lat": 19.55,
    "lng": -99.2833,
    "country": "Mexico",
    "iso2": "MX",
    "iso3": "MEX",
    "admin_name": "México",
    "capital": "minor",
    "population": 489937,
    "id": 1484363879
  },
  {
    "city": "Shangzhi",
    "city_ascii": "Shangzhi",
    "lat": 45.207,
    "lng": 127.965,
    "country": "China",
    "iso2": "CN",
    "iso3": "CHN",
    "admin_name": "Heilongjiang",
    "capital": "minor",
    "population": 463358,
    "id": 1156107332
  },
  {
    "city": "Boise",
    "city_ascii": "Boise",
    "lat": 43.6005,
    "lng": -116.2308,
    "country": "United States",
    "iso2": "US",
    "iso3": "USA",
    "admin_name": "Idaho",
    "capital": "admin",
    "population": 449428,
    "id": 1840027142
  },
  {
    "city": "Ado-Ekiti",
    "city_ascii": "Ado-Ekiti",
    "lat": 7.6211,
    "lng": 5.2214,
    "country": "Nigeria",
    "iso2": "NG",
    "iso3": "NGA",
    "admin_name": "Ekiti",
    "capital": "admin",
    "population": 446749,
    "id": 1566196391
  },
  {
    "city": "Rahimyar Khan",
    "city_ascii": "Rahimyar Khan",
    "lat": 28.42,
    "lng": 70.3,
    "country": "Pakistan",
    "iso2": "PK",
    "iso3": "PAK",
    "admin_name": "Punjab",
    "population": 420419,
    "id": 1586136399
  },
  {
    "city": "Maringá",
    "city_ascii": "Maringa",
    "lat": -23.425,
    "lng": -51.9389,
    "country": "Brazil",
    "iso2": "BR",
    "iso3": "BRA",
    "admin_name": "Paraná",
    "capital": "minor",
    "population": 409657,
    "id": 1076013378
  },
  {
    "city": "Cumaná",
    "city_ascii": "Cumana",
    "lat": 10.4564,
    "lng": -64.1675,
    "country": "Venezuela",
    "iso2": "VE",
    "iso3": "VEN",
    "admin_name": "Sucre",
    "capital": "admin",
    "population": 405626,
    "id": 1862583279
  },
  {
    "city": "Salt Lake City",
    "city_ascii": "Salt Lake City",
    "lat": 22.61,
    "lng": 88.4,
    "country": "India",
    "iso2": "IN",
    "iso3": "IND",
    "admin_name": "West Bengal",
    "population": 403316,
    "id": 1356720205
  },
  {
    "city": "Sandakan",
    "city_ascii": "Sandakan",
    "lat": 5.843,
    "lng": 118.108,
    "country": "Malaysia",
    "iso2": "MY",
    "iso3": "MYS",
    "admin_name": "Sabah",
    "population": 396290,
    "id": 1458405180
  },
  {
    "city": "Khayelitsha",
    "city_ascii": "Khayelitsha",
    "lat": -34.0403,
    "lng": 18.6778,
    "country": "South Africa",
    "iso2": "ZA",
    "iso3": "ZAF",
    "admin_name": "Western Cape",
    "population": 391749,
    "id": 1710736316
  },
  {
    "city": "Bairia",
    "city_ascii": "Bairia",
    "lat": 25.7583,
    "lng": 84.1489,
    "country": "India",
    "iso2": "IN",
    "iso3": "IND",
    "admin_name": "Uttar Pradesh",
    "population": 386745,
    "id": 1356189784
  },
  {
    "city": "Cainta",
    "city_ascii": "Cainta",
    "lat": 14.57,
    "lng": 121.12,
    "country": "Philippines",
    "iso2": "PH",
    "iso3": "PHL",
    "admin_name": "Rizal",
    "population": 376933,
    "id": 1608314665
  },
  {
    "city": "Bochum",
    "city_ascii": "Bochum",
    "lat": 51.4819,
    "lng": 7.2158,
    "country": "Germany",
    "iso2": "DE",
    "iso3": "DEU",
    "admin_name": "North Rhine-Westphalia",
    "capital": "minor",
    "population": 366385,
    "id": 1276227288
  },
  {
    "city": "Pokhara",
    "city_ascii": "Pokhara",
    "lat": 28.2097,
    "lng": 83.9853,
    "country": "Nepal",
    "iso2": "NP",
    "iso3": "NPL",
    "admin_name": "Gaṇḍakī",
    "capital": "admin",
    "population": 353841,
    "id": 1524416084
  },
  {
    "city": "Meram",
    "city_ascii": "Meram",
    "lat": 37.8364,
    "lng": 32.4383,
    "country": "Turkey",
    "iso2": "TR",
    "iso3": "TUR",
    "admin_name": "Konya",
    "capital": "minor",
    "population": 348325,
    "id": 1792895883
  },
  {
    "city": "Wad Medani",
    "city_ascii": "Wad Medani",
    "lat": 14.4,
    "lng": 33.51,
    "country": "Sudan",
    "iso2": "SD",
    "iso3": "SDN",
    "admin_name": "Gezira",
    "capital": "admin",
    "population": 345290,
    "id": 1729581572
  },
  {
    "city": "Pavlodar",
    "city_ascii": "Pavlodar",
    "lat": 52.3,
    "lng": 76.95,
    "country": "Kazakhstan",
    "iso2": "KZ",
    "iso3": "KAZ",
    "admin_name": "Pavlodar",
    "capital": "admin",
    "population": 343091,
    "id": 1398790087
  },
  {
    "city": "Viña del Mar",
    "city_ascii": "Vina del Mar",
    "lat": -33.0244,
    "lng": -71.5517,
    "country": "Chile",
    "iso2": "CL",
    "iso3": "CHL",
    "admin_name": "Valparaíso",
    "population": 332875,
    "id": 1152898644
  },
  {
    "city": "Konak",
    "city_ascii": "Konak",
    "lat": 38.4189,
    "lng": 27.1285,
    "country": "Turkey",
    "iso2": "TR",
    "iso3": "TUR",
    "admin_name": "İzmir",
    "capital": "minor",
    "population": 332277,
    "id": 1792668647
  },
  {
    "city": "Santarém",
    "city_ascii": "Santarem",
    "lat": -2.4431,
    "lng": -54.7083,
    "country": "Brazil",
    "iso2": "BR",
    "iso3": "BRA",
    "admin_name": "Pará",
    "population": 331937,
    "id": 1076256494
  },
  {
    "city": "Asahikawa",
    "city_ascii": "Asahikawa",
    "lat": 43.7667,
    "lng": 142.3667,
    "country": "Japan",
    "iso2": "JP",
    "iso3": "JPN",
    "admin_name": "Hokkaidō",
    "population": 331392,
    "id": 1392380358
  },
  {
    "city": "Belgorod",
    "city_ascii": "Belgorod",
    "lat": 50.6,
    "lng": 36.6,
    "country": "Russia",
    "iso2": "RU",
    "iso3": "RUS",
    "admin_name": "Belgorodskaya Oblast’",
    "capital": "admin",
    "population": 328482,
    "id": 1643407900
  },
  {
    "city": "Si Racha",
    "city_ascii": "Si Racha",
    "lat": 13.174,
    "lng": 100.93,
    "country": "Thailand",
    "iso2": "TH",
    "iso3": "THA",
    "admin_name": "Chon Buri",
    "capital": "minor",
    "population": 327172,
    "id": 1764003327
  },
  {
    "city": "Fayetteville",
    "city_ascii": "Fayetteville",
    "lat": 35.085,
    "lng": -78.9772,
    "country": "United States",
    "iso2": "US",
    "iso3": "USA",
    "admin_name": "North Carolina",
    "population": 326821,
    "id": 1840013490
  },
  {
    "city": "Lexington",
    "city_ascii": "Lexington",
    "lat": 38.0423,
    "lng": -84.4587,
    "country": "United States",
    "iso2": "US",
    "iso3": "USA",
    "admin_name": "Kentucky",
    "population": 321122,
    "id": 1840015211
  },
  {
    "city": "Puerto Plata",
    "city_ascii": "Puerto Plata",
    "lat": 19.8,
    "lng": -70.6833,
    "country": "Dominican Republic",
    "iso2": "DO",
    "iso3": "DOM",
    "admin_name": "Cibao Norte",
    "capital": "minor",
    "population": 318419,
    "id": 1214279422
  },
  {
    "city": "Muar",
    "city_ascii": "Muar",
    "lat": 2.0337,
    "lng": 102.5666,
    "country": "Malaysia",
    "iso2": "MY",
    "iso3": "MYS",
    "admin_name": "Johor",
    "population": 314776,
    "id": 1458170112
  },
  {
    "city": "Yakutsk",
    "city_ascii": "Yakutsk",
    "lat": 62.03,
    "lng": 129.73,
    "country": "Russia",
    "iso2": "RU",
    "iso3": "RUS",
    "admin_name": "Sakha (Yakutiya)",
    "capital": "admin",
    "population": 311760,
    "id": 1643163546
  },
  {
    "city": "Shahr-e Qods",
    "city_ascii": "Shahr-e Qods",
    "lat": 35.7103,
    "lng": 51.1131,
    "country": "Iran",
    "iso2": "IR",
    "iso3": "IRN",
    "admin_name": "Tehrān",
    "capital": "minor",
    "population": 309605,
    "id": 1364272235
  },
  {
    "city": "Nakuru",
    "city_ascii": "Nakuru",
    "lat": -0.2833,
    "lng": 36.0667,
    "country": "Kenya",
    "iso2": "KE",
    "iso3": "KEN",
    "admin_name": "Nakuru",
    "capital": "admin",
    "population": 307990,
    "id": 1404140179
  },
  {
    "city": "Chakwal",
    "city_ascii": "Chakwal",
    "lat": 32.9303,
    "lng": 72.8556,
    "country": "Pakistan",
    "iso2": "PK",
    "iso3": "PAK",
    "admin_name": "Punjab",
    "capital": "minor",
    "population": 299751,
    "id": 1586412908
  },
  {
    "city": "Resistencia",
    "city_ascii": "Resistencia",
    "lat": -27.4514,
    "lng": -58.9867,
    "country": "Argentina",
    "iso2": "AR",
    "iso3": "ARG",
    "admin_name": "Chaco",
    "capital": "admin",
    "population": 298611,
    "id": 1032720891
  },
  {
    "city": "Comilla",
    "city_ascii": "Comilla",
    "lat": 23.45,
    "lng": 91.2,
    "country": "Bangladesh",
    "iso2": "BD",
    "iso3": "BGD",
    "admin_name": "Chattogram",
    "population": 296010,
    "id": 1050609330
  },
  {
    "city": "Vila Teixeira da Silva",
    "city_ascii": "Vila Teixeira da Silva",
    "lat": -12.1958,
    "lng": 15.8556,
    "country": "Angola",
    "iso2": "AO",
    "iso3": "AGO",
    "admin_name": "Huambo",
    "population": 294494,
    "id": 1024863343
  },
  {
    "city": "Canton",
    "city_ascii": "Canton",
    "lat": 40.8078,
    "lng": -81.3676,
    "country": "United States",
    "iso2": "US",
    "iso3": "USA",
    "admin_name": "Ohio",
    "population": 293657,
    "id": 1840000963
  },
  {
    "city": "Nāgercoil",
    "city_ascii": "Nagercoil",
    "lat": 8.175,
    "lng": 77.4306,
    "country": "India",
    "iso2": "IN",
    "iso3": "IND",
    "admin_name": "Tamil Nādu",
    "population": 289916,
    "id": 1356051733
  },
  {
    "city": "Anápolis",
    "city_ascii": "Anapolis",
    "lat": -16.3269,
    "lng": -48.9528,
    "country": "Brazil",
    "iso2": "BR",
    "iso3": "BRA",
    "admin_name": "Goiás",
    "capital": "minor",
    "population": 288085,
    "id": 1076208869
  },
  {
    "city": "San Juan Sacatepéquez",
    "city_ascii": "San Juan Sacatepequez",
    "lat": 14.7189,
    "lng": -90.6442,
    "country": "Guatemala",
    "iso2": "GT",
    "iso3": "GTM",
    "admin_name": "Guatemala",
    "capital": "minor",
    "population": 284798,
    "id": 1320451247
  },
  {
    "city": "Bago",
    "city_ascii": "Bago",
    "lat": 17.3333,
    "lng": 96.4833,
    "country": "Burma",
    "iso2": "MM",
    "iso3": "MMR",
    "admin_name": "Bago",
    "capital": "admin",
    "population": 284179,
    "id": 1104027443
  },
  {
    "city": "Gyeongsan",
    "city_ascii": "Gyeongsan",
    "lat": 35.8167,
    "lng": 128.7333,
    "country": "Korea, South",
    "iso2": "KR",
    "iso3": "KOR",
    "admin_name": "Gyeongbuk",
    "population": 278500,
    "id": 1410545168
  },
  {
    "city": "Gijón",
    "city_ascii": "Gijon",
    "lat": 43.5333,
    "lng": -5.7,
    "country": "Spain",
    "iso2": "ES",
    "iso3": "ESP",
    "admin_name": "Asturias",
    "population": 268561,
    "id": 1724170659
  },
  {
    "city": "Potosí",
    "city_ascii": "Potosi",
    "lat": -19.5892,
    "lng": -65.7533,
    "country": "Bolivia",
    "iso2": "BO",
    "iso3": "BOL",
    "admin_name": "Potosí",
    "capital": "admin",
    "population": 267907,
    "id": 1068933987
  },
  {
    "city": "Nagaoka",
    "city_ascii": "Nagaoka",
    "lat": 37.4462,
    "lng": 138.8512,
    "country": "Japan",
    "iso2": "JP",
    "iso3": "JPN",
    "admin_name": "Niigata",
    "population": 265868,
    "id": 1392003404
  },
  {
    "city": "Nogales",
    "city_ascii": "Nogales",
    "lat": 31.3,
    "lng": -110.9333,
    "country": "Mexico",
    "iso2": "MX",
    "iso3": "MEX",
    "admin_name": "Sonora",
    "population": 264782,
    "id": 1484793569
  },
  {
    "city": "Constanţa",
    "city_ascii": "Constanta",
    "lat": 44.1667,
    "lng": 28.6333,
    "country": "Romania",
    "iso2": "RO",
    "iso3": "ROU",
    "admin_name": "Constanţa",
    "capital": "admin",
    "population": 263707,
    "id": 1642851858
  },
  {
    "city": "Fukui",
    "city_ascii": "Fukui",
    "lat": 36.0641,
    "lng": 136.2196,
    "country": "Japan",
    "iso2": "JP",
    "iso3": "JPN",
    "admin_name": "Fukui",
    "capital": "admin",
    "population": 261474,
    "id": 1392897510
  },
  {
    "city": "Germiston",
    "city_ascii": "Germiston",
    "lat": -26.2178,
    "lng": 28.1672,
    "country": "South Africa",
    "iso2": "ZA",
    "iso3": "ZAF",
    "admin_name": "Gauteng",
    "population": 255863,
    "id": 1710366382
  },
  {
    "city": "Marilao",
    "city_ascii": "Marilao",
    "lat": 14.7581,
    "lng": 120.9481,
    "country": "Philippines",
    "iso2": "PH",
    "iso3": "PHL",
    "admin_name": "Bulacan",
    "population": 254453,
    "id": 1608371779
  },
  {
    "city": "Godomè",
    "city_ascii": "Godome",
    "lat": 6.3667,
    "lng": 2.35,
    "country": "Benin",
    "iso2": "BJ",
    "iso3": "BEN",
    "admin_name": "Atlantique",
    "population": 253262,
    "id": 1204027999
  },
  {
    "city": "Uberaba",
    "city_ascii": "Uberaba",
    "lat": -19.7478,
    "lng": -47.9319,
    "country": "Brazil",
    "iso2": "BR",
    "iso3": "BRA",
    "admin_name": "Minas Gerais",
    "capital": "minor",
    "population": 252051,
    "id": 1076230331
  },
  {
    "city": "Bata",
    "city_ascii": "Bata",
    "lat": 1.865,
    "lng": 9.77,
    "country": "Equatorial Guinea",
    "iso2": "GQ",
    "iso3": "GNQ",
    "admin_name": "Litoral",
    "capital": "admin",
    "population": 250770,
    "id": 1226528087
  },
  {
    "city": "Magdeburg",
    "city_ascii": "Magdeburg",
    "lat": 52.1317,
    "lng": 11.6392,
    "country": "Germany",
    "iso2": "DE",
    "iso3": "DEU",
    "admin_name": "Saxony-Anhalt",
    "capital": "admin",
    "population": 240114,
    "id": 1276418236
  },
  {
    "city": "González Catán",
    "city_ascii": "Gonzalez Catan",
    "lat": -34.7667,
    "lng": -58.6167,
    "country": "Argentina",
    "iso2": "AR",
    "iso3": "ARG",
    "admin_name": "Buenos Aires",
    "population": 238067,
    "id": 1032883563
  },
  {
    "city": "Iseyin",
    "city_ascii": "Iseyin",
    "lat": 7.9667,
    "lng": 3.6,
    "country": "Nigeria",
    "iso2": "NG",
    "iso3": "NGA",
    "admin_name": "Oyo",
    "capital": "minor",
    "population": 236000,
    "id": 1566714777
  },
  {
    "city": "Kigoma",
    "city_ascii": "Kigoma",
    "lat": -4.8833,
    "lng": 29.6333,
    "country": "Tanzania",
    "iso2": "TZ",
    "iso3": "TZA",
    "admin_name": "Kigoma",
    "capital": "admin",
    "population": 232388,
    "id": 1834583327
  },
  {
    "city": "Rancagua",
    "city_ascii": "Rancagua",
    "lat": -34.1667,
    "lng": -70.75,
    "country": "Chile",
    "iso2": "CL",
    "iso3": "CHL",
    "admin_name": "Libertador General Bernardo O’Higgins",
    "capital": "admin",
    "population": 231370,
    "id": 1152672356
  },
  {
    "city": "Khénifra",
    "city_ascii": "Khenifra",
    "lat": 32.9394,
    "lng": -5.6675,
    "country": "Morocco",
    "iso2": "MA",
    "iso3": "MAR",
    "admin_name": "Béni Mellal-Khénifra",
    "population": 228567,
    "id": 1504143530
  },
  {
    "city": "Green Bay",
    "city_ascii": "Green Bay",
    "lat": 44.5148,
    "lng": -87.9895,
    "country": "United States",
    "iso2": "US",
    "iso3": "USA",
    "admin_name": "Wisconsin",
    "population": 227679,
    "id": 1840002344
  },
  {
    "city": "Korolëv",
    "city_ascii": "Korolev",
    "lat": 55.9167,
    "lng": 37.8167,
    "country": "Russia",
    "iso2": "RU",
    "iso3": "RUS",
    "admin_name": "Moskovskaya Oblast’",
    "capital": "minor",
    "population": 226007,
    "id": 1643323167
  },
  {
    "city": "Itaboraí",
    "city_ascii": "Itaborai",
    "lat": -22.7475,
    "lng": -42.8558,
    "country": "Brazil",
    "iso2": "BR",
    "iso3": "BRA",
    "admin_name": "Rio de Janeiro",
    "capital": "minor",
    "population": 224267,
    "id": 1076964860
  },
  {
    "city": "Neyshābūr",
    "city_ascii": "Neyshabur",
    "lat": 36.22,
    "lng": 58.82,
    "country": "Iran",
    "iso2": "IR",
    "iso3": "IRN",
    "admin_name": "Khorāsān-e Raẕavī",
    "capital": "minor",
    "population": 221700,
    "id": 1364706573
  },
  {
    "city": "Warnes",
    "city_ascii": "Warnes",
    "lat": -17.5167,
    "lng": -63.1667,
    "country": "Bolivia",
    "iso2": "BO",
    "iso3": "BOL",
    "admin_name": "Santa Cruz",
    "population": 214216,
    "id": 1068890339
  },
  {
    "city": "Bouaflé",
    "city_ascii": "Bouafle",
    "lat": 6.9903,
    "lng": -5.7442,
    "country": "Côte d’Ivoire",
    "iso2": "CI",
    "iso3": "CIV",
    "admin_name": "Sassandra-Marahoué",
    "capital": "minor",
    "population": 213967,
    "id": 1384274339
  },
  {
    "city": "Częstochowa",
    "city_ascii": "Czestochowa",
    "lat": 50.8,
    "lng": 19.1167,
    "country": "Poland",
    "iso2": "PL",
    "iso3": "POL",
    "admin_name": "Śląskie",
    "capital": "minor",
    "population": 213107,
    "id": 1616881632
  },
  {
    "city": "Gujiao",
    "city_ascii": "Gujiao",
    "lat": 37.907,
    "lng": 112.176,
    "country": "China",
    "iso2": "CN",
    "iso3": "CHN",
    "admin_name": "Shanxi",
    "population": 210757,
    "id": 1156571525
  },
  {
    "city": "Kasangati",
    "city_ascii": "Kasangati",
    "lat": 0.4378,
    "lng": 32.6025,
    "country": "Uganda",
    "iso2": "UG",
    "iso3": "UGA",
    "admin_name": "Wakiso",
    "population": 207800,
    "id": 1800208674
  },
  {
    "city": "Dinājpur",
    "city_ascii": "Dinajpur",
    "lat": 25.63,
    "lng": 88.65,
    "country": "Bangladesh",
    "iso2": "BD",
    "iso3": "BGD",
    "admin_name": "Rangpur",
    "population": 206200,
    "id": 1050817445
  },
  {
    "city": "Hospet",
    "city_ascii": "Hospet",
    "lat": 15.2689,
    "lng": 76.3909,
    "country": "India",
    "iso2": "IN",
    "iso3": "IND",
    "admin_name": "Karnātaka",
    "population": 206167,
    "id": 1356241463
  },
  {
    "city": "San Carlos City",
    "city_ascii": "San Carlos City",
    "lat": 15.9281,
    "lng": 120.3489,
    "country": "Philippines",
    "iso2": "PH",
    "iso3": "PHL",
    "admin_name": "Pangasinan",
    "population": 205424,
    "id": 1608542323
  },
  {
    "city": "Las Tunas",
    "city_ascii": "Las Tunas",
    "lat": 20.9667,
    "lng": -76.95,
    "country": "Cuba",
    "iso2": "CU",
    "iso3": "CUB",
    "admin_name": "Las Tunas",
    "capital": "admin",
    "population": 202105,
    "id": 1192626319
  },
  {
    "city": "Debrecen",
    "city_ascii": "Debrecen",
    "lat": 47.53,
    "lng": 21.6392,
    "country": "Hungary",
    "iso2": "HU",
    "iso3": "HUN",
    "admin_name": "Hajdú-Bihar",
    "capital": "admin",
    "population": 201704,
    "id": 1348460698
  },
  {
    "city": "Bago",
    "city_ascii": "Bago",
    "lat": 10.5388,
    "lng": 122.8384,
    "country": "Philippines",
    "iso2": "PH",
    "iso3": "PHL",
    "admin_name": "Negros Occidental",
    "population": 191210,
    "id": 1608943172
  },
  {
    "city": "Gastonia",
    "city_ascii": "Gastonia",
    "lat": 35.2494,
    "lng": -81.1854,
    "country": "United States",
    "iso2": "US",
    "iso3": "USA",
    "admin_name": "North Carolina",
    "population": 189767,
    "id": 1840013468
  },
  {
    "city": "Anjōmachi",
    "city_ascii": "Anjomachi",
    "lat": 34.9587,
    "lng": 137.0803,
    "country": "Japan",
    "iso2": "JP",
    "iso3": "JPN",
    "admin_name": "Aichi",
    "population": 188801,
    "id": 1392081830
  },
  {
    "city": "Spring Hill",
    "city_ascii": "Spring Hill",
    "lat": 28.4798,
    "lng": -82.53,
    "country": "United States",
    "iso2": "US",
    "iso3": "USA",
    "admin_name": "Florida",
    "population": 188743,
    "id": 1840014105
  },
  {
    "city": "Bahraigh",
    "city_ascii": "Bahraigh",
    "lat": 27.575,
    "lng": 81.594,
    "country": "India",
    "iso2": "IN",
    "iso3": "IND",
    "admin_name": "Uttar Pradesh",
    "population": 186223,
    "id": 1356833304
  },
  {
    "city": "Ittikara",
    "city_ascii": "Ittikara",
    "lat": 8.8633,
    "lng": 76.6972,
    "country": "India",
    "iso2": "IN",
    "iso3": "IND",
    "admin_name": "Kerala",
    "population": 185008,
    "id": 1356161481
  },
  {
    "city": "Guna",
    "city_ascii": "Guna",
    "lat": 24.65,
    "lng": 77.32,
    "country": "India",
    "iso2": "IN",
    "iso3": "IND",
    "admin_name": "Madhya Pradesh",
    "population": 180935,
    "id": 1356056608
  },
  {
    "city": "Sātāra",
    "city_ascii": "Satara",
    "lat": 17.688,
    "lng": 74.006,
    "country": "India",
    "iso2": "IN",
    "iso3": "IND",
    "admin_name": "Mahārāshtra",
    "population": 179147,
    "id": 1356054526
  },
  {
    "city": "Ontario",
    "city_ascii": "Ontario",
    "lat": 34.0393,
    "lng": -117.6064,
    "country": "United States",
    "iso2": "US",
    "iso3": "USA",
    "admin_name": "California",
    "population": 178347,
    "id": 1840020410
  },
  {
    "city": "Kandi",
    "city_ascii": "Kandi",
    "lat": 11.1286,
    "lng": 2.9369,
    "country": "Benin",
    "iso2": "BJ",
    "iso3": "BEN",
    "admin_name": "Alibori",
    "capital": "admin",
    "population": 177683,
    "id": 1204875413
  },
  {
    "city": "Albacete",
    "city_ascii": "Albacete",
    "lat": 38.9956,
    "lng": -1.8558,
    "country": "Spain",
    "iso2": "ES",
    "iso3": "ESP",
    "admin_name": "Castille-La Mancha",
    "capital": "minor",
    "population": 174137,
    "id": 1724000069
  },